Provider Name,Address 1,Address 2,City,State,Zip,Public Phone,Latitude,Longitude,Geopoint,Last Report Date,Is PAP Site,Prescribing Services Available,Appointment URL,Home Delivery,Is ICATT Site,Has USG Product,Has Commercial Product,Has Paxlovid,Has Commercial Paxlovid,Has USG Paxlovid,Has Lagevrio,Has Commercial Lagevrio,Has USG Lagevrio,Has Veklury,Has Oseltamivir Generic,Has Oseltamivir Suspension,Has Oseltamivir Tamiflu,Has Baloxavir,Has Zanamivir,Has Peramivir,Grantee Code,Is Flu,Is COVID-19
CVS PHARMACY #05246,110 HWY 98,,PORT SAINT JOE,FL,32456,,30.01643,-85.43051,POINT (-85.43051 30.01643),12/6/2024 0:00,TRUE,,,FALSE,FALSE,FALSE,FALSE,FALSE,FALSE,FALSE,FALSE,FALSE,FALSE,FALSE,FALSE,FALSE,FALSE,FALSE,FALSE,FALSE,CV1,FALSE,TRUE
PUBLIX PHARMACY #0567,2517 SOUTH FEDERAL HIGHWAY,,FT PIERCE,FL,34982,,27.31963,-80.316317,POINT (-80.316317 27.31963),12/6/2024 0:00,TRUE,,,FALSE,FALSE,FALSE,FALSE,FALSE,FALSE,FALSE,FALSE,FALSE,FALSE,FALSE,FALSE,FALSE,FALSE,FALSE,FALSE,FALSE,PX1,FALSE,TRUE
WALGREENS #4379,4320 26TH ST W,,BRADENTON,FL,34205-3563,,27.462954,-82.588373,POINT (-82.588373 27.462954),12/6/2024 0:00,TRUE,,,FALSE,FALSE,FALSE,FALSE,FALSE,FALSE,FALSE,FALSE,FALSE,FALSE,FALSE,FALSE,FALSE,FALSE,FALSE,FALSE,FALSE,WG1,FALSE,TRUE
PUBLIX PHARMACY #0894,6820 OKEECHOBEE BLVD,,WEST PALM BEACH,FL,33411,,26.705894,-80.150789,POINT (-80.150789 26.705894),12/6/2024 0:00,TRUE,,,FALSE,FALSE,FALSE,FALSE,FALSE,FALSE,FALSE,FALSE,FALSE,FALSE,FALSE,FALSE,FALSE,FALSE,FALSE,FALSE,FALSE,PX1,FALSE,TRUE
PUBLIX PHARMACY #0019,731 DUVAL STATION RD SUITE 4,,JACKSONVILLE,FL,32218,,30.485316,-81.604614,POINT (-81.604614 30.485316),12/6/2024 0:00,TRUE,,,FALSE,FALSE,FALSE,FALSE,FALSE,FALSE,FALSE,FALSE,FALSE,FALSE,FALSE,FALSE,FALSE,FALSE,FALSE,FALSE,FALSE,PX1,FALSE,TRUE
WALGREENS #456,1723 E YOUNG CIRCLE,,HOLLYWOOD,FL,33020-6824,,26.011616,-80.141115,POINT (-80.141115 26.011616),12/6/2024 0:00,TRUE,,,FALSE,FALSE,FALSE,FALSE,FALSE,FALSE,FALSE,FALSE,FALSE,FALSE,FALSE,FALSE,FALSE,FALSE,FALSE,FALSE,FALSE,WG1,FALSE,TRUE
PUBLIX PHARMACY #0061,3450 EAST SILVER SPRINGS BLVD,,OCALA,FL,34470,,29.194375,-82.08814,POINT (-82.08814 29.194375),12/6/2024 0:00,TRUE,,,FALSE,FALSE,FALSE,FALSE,FALSE,FALSE,FALSE,FALSE,FALSE,FALSE,FALSE,FALSE,FALSE,FALSE,FALSE,FALSE,FALSE,PX1,FALSE,TRUE
WALGREENS #10900,3490 BIRD AVE,,MIAMI,FL,33133-4301,,25.735208,-80.249456,POINT (-80.249456 25.735208),12/6/2024 0:00,TRUE,,,FALSE,FALSE,FALSE,FALSE,FALSE,FALSE,FALSE,FALSE,FALSE,FALSE,FALSE,FALSE,FALSE,FALSE,FALSE,FALSE,FALSE,WG1,FALSE,TRUE
WALGREENS #621,5731 BIRD RD,,MIAMI,FL,33155-5301,,25.734894,-80.287093,POINT (-80.287093 25.734894),12/6/2024 0:00,TRUE,,,FALSE,FALSE,FALSE,FALSE,FALSE,FALSE,FALSE,FALSE,FALSE,FALSE,FALSE,FALSE,FALSE,FALSE,FALSE,FALSE,FALSE,WG1,FALSE,TRUE
WALGREENS #3650,2420 E COLONIAL DR,,ORLANDO,FL,32803-5019,,28.57416,-81.26227667,POINT (-81.26227667 28.57416),12/6/2024 0:00,TRUE,,,FALSE,FALSE,FALSE,FALSE,FALSE,FALSE,FALSE,FALSE,FALSE,FALSE,FALSE,FALSE,FALSE,FALSE,FALSE,FALSE,FALSE,WG1,FALSE,TRUE
WALGREENS #774,205 E GRANADA BLVD,,ORMOND BEACH,FL,32176-6632,,29.2923,-81.04145,POINT (-81.04145 29.2923),12/6/2024 0:00,TRUE,,,FALSE,FALSE,FALSE,FALSE,FALSE,FALSE,FALSE,FALSE,FALSE,FALSE,FALSE,FALSE,FALSE,FALSE,FALSE,FALSE,FALSE,WG1,FALSE,TRUE
WALMART PHARMACY 10-5037,464016 STATE ROAD 200,,YULEE,FL,32097,,30.622809,-81.534581,POINT (-81.534581 30.622809),12/6/2024 0:00,TRUE,,,FALSE,FALSE,FALSE,FALSE,FALSE,FALSE,FALSE,FALSE,FALSE,FALSE,FALSE,FALSE,FALSE,FALSE,FALSE,FALSE,FALSE,WM1,FALSE,TRUE
WALGREENS #11537,414 S MAGNOLIA DR,,TALLAHASSEE,FL,32301-2944,,30.437893,-84.262342,POINT (-84.262342 30.437893),12/6/2024 0:00,TRUE,,,FALSE,FALSE,FALSE,FALSE,FALSE,FALSE,FALSE,FALSE,FALSE,FALSE,FALSE,FALSE,FALSE,FALSE,FALSE,FALSE,FALSE,WG1,FALSE,TRUE
SMITHERMANS PHARMACY,703 MAIN ST,,MONTEVALLO,AL,35115,,33.10057,-86.86308,POINT (-86.86308 33.10057),12/6/2024 0:00,TRUE,,,FALSE,FALSE,FALSE,FALSE,FALSE,FALSE,FALSE,FALSE,FALSE,FALSE,FALSE,FALSE,FALSE,FALSE,FALSE,FALSE,FALSE,,FALSE,TRUE
WALGREENS #3459,2115 E HILLSBOROUGH AVE,,TAMPA,FL,33610-8204,,27.995662,-82.43604,POINT (-82.43604 27.995662),12/6/2024 0:00,TRUE,,,FALSE,FALSE,FALSE,FALSE,FALSE,FALSE,FALSE,FALSE,FALSE,FALSE,FALSE,FALSE,FALSE,FALSE,FALSE,FALSE,FALSE,WG1,FALSE,TRUE
WALGREENS #4644,4600 S WASHINGTON AVE,,TITUSVILLE,FL,32780-7339,,28.557029,-80.798962,POINT (-80.798962 28.557029),12/6/2024 0:00,TRUE,,,FALSE,FALSE,FALSE,FALSE,FALSE,FALSE,FALSE,FALSE,FALSE,FALSE,FALSE,FALSE,FALSE,FALSE,FALSE,FALSE,FALSE,WG1,FALSE,TRUE
WALGREENS #4799,22449 EDGEWATER DR,,PORT CHARLOTTE,FL,33980-2016,,26.963644,-82.074735,POINT (-82.074735 26.963644),12/6/2024 0:00,TRUE,,,FALSE,FALSE,FALSE,FALSE,FALSE,FALSE,FALSE,FALSE,FALSE,FALSE,FALSE,FALSE,FALSE,FALSE,FALSE,FALSE,FALSE,WG1,FALSE,TRUE
CVS PHARMACY #05817,1800 EAST HIGHWAY 50,,CLERMONT,FL,34711,,28.547632,-81.722769,POINT (-81.722769 28.547632),12/6/2024 0:00,TRUE,,,FALSE,FALSE,FALSE,FALSE,FALSE,FALSE,FALSE,FALSE,FALSE,FALSE,FALSE,FALSE,FALSE,FALSE,FALSE,FALSE,FALSE,CV1,FALSE,TRUE
LA GANGA DISCOUNT PHARMACY,2975 NW 17TH AVE,,MIAMI,FL,33142,,25.804293,-80.223489,POINT (-80.223489 25.804293),12/6/2024 0:00,TRUE,,,FALSE,FALSE,FALSE,FALSE,FALSE,FALSE,FALSE,FALSE,FALSE,FALSE,FALSE,FALSE,FALSE,FALSE,FALSE,FALSE,FALSE,,FALSE,TRUE
PUBLIX PHARMACY #0638,10142 INDIANTOWN RD,,JUPITER,FL,33478,,26.939334,-80.192452,POINT (-80.192452 26.939334),12/6/2024 0:00,TRUE,,,FALSE,FALSE,FALSE,FALSE,FALSE,FALSE,FALSE,FALSE,FALSE,FALSE,FALSE,FALSE,FALSE,FALSE,FALSE,FALSE,FALSE,PX1,FALSE,TRUE
WALMART PHARMACY 10-2626,6868 U.S. HWY 129,,LIVE OAK,FL,32060,,30.324465,-82.963965,POINT (-82.963965 30.324465),12/6/2024 0:00,TRUE,,,FALSE,FALSE,FALSE,FALSE,FALSE,FALSE,FALSE,FALSE,FALSE,FALSE,FALSE,FALSE,FALSE,FALSE,FALSE,FALSE,FALSE,WM1,FALSE,TRUE
WALMART PHARMACY 10-2591,151 SW 184 AVENUE,,PEMBROKE PINES,FL,33029,,26.005739,-80.389673,POINT (-80.389673 26.005739),12/6/2024 0:00,TRUE,,,FALSE,FALSE,FALSE,FALSE,FALSE,FALSE,FALSE,FALSE,FALSE,FALSE,FALSE,FALSE,FALSE,FALSE,FALSE,FALSE,FALSE,WM1,FALSE,TRUE
CVS PHARMACY #05247,2353 UNIVERSITY DRIVE,,CORAL SPRINGS,FL,33065,,26.259772,-80.249249,POINT (-80.249249 26.259772),12/6/2024 0:00,TRUE,,,FALSE,FALSE,FALSE,FALSE,FALSE,FALSE,FALSE,FALSE,FALSE,FALSE,FALSE,FALSE,FALSE,FALSE,FALSE,FALSE,FALSE,CV1,FALSE,TRUE
CVS PHARMACY #03281,11241 MIROMAR SQUARE BLVD,,ESTERO,FL,33928,239-992-6168,26.435271,-81.770572,POINT (-81.770572 26.435271),12/6/2024 0:00,TRUE,,,FALSE,FALSE,FALSE,TRUE,TRUE,TRUE,FALSE,TRUE,TRUE,FALSE,FALSE,TRUE,TRUE,FALSE,FALSE,FALSE,FALSE,CV1,TRUE,TRUE
PUBLIX PHARMACY #0898,4145 9TH STREET SW,,VERO BEACH,FL,32968,,27.585849,-80.428984,POINT (-80.428984 27.585849),12/6/2024 0:00,TRUE,,,FALSE,FALSE,FALSE,FALSE,FALSE,FALSE,FALSE,FALSE,FALSE,FALSE,FALSE,FALSE,FALSE,FALSE,FALSE,FALSE,FALSE,PX1,FALSE,TRUE
CVS PHARMACY #03158,1895 N CONGRESS AVE,,BOYNTON BEACH,FL,33426,561-736-8116,26.545108,-80.091297,POINT (-80.091297 26.545108),12/6/2024 0:00,TRUE,,,FALSE,FALSE,FALSE,TRUE,TRUE,TRUE,FALSE,TRUE,TRUE,FALSE,FALSE,TRUE,TRUE,FALSE,FALSE,FALSE,FALSE,CV1,TRUE,TRUE
VENICE APOTHECARY,1243 US HIGHWAY 41 BYP S.,,VENICE,FL,34285,,27.085357,-82.427384,POINT (-82.427384 27.085357),12/6/2024 0:00,TRUE,,,FALSE,FALSE,FALSE,FALSE,FALSE,FALSE,FALSE,FALSE,FALSE,FALSE,FALSE,FALSE,FALSE,FALSE,FALSE,FALSE,FALSE,,FALSE,TRUE
CVS PHARMACY #03278,3501 N PINE AVE,,OCALA,FL,34475,352-622-3083,29.18805,-82.139255,POINT (-82.139255 29.18805),12/6/2024 0:00,TRUE,,,FALSE,FALSE,FALSE,TRUE,TRUE,TRUE,FALSE,TRUE,TRUE,FALSE,FALSE,TRUE,TRUE,FALSE,FALSE,FALSE,FALSE,CV1,TRUE,TRUE
PUBLIX PHARMACY #0128,9518 ARGYLE FOREST BLVD,,JACKSONVILLE,FL,32222,,30.193436,-81.82565,POINT (-81.82565 30.193436),12/6/2024 0:00,TRUE,,,FALSE,FALSE,FALSE,FALSE,FALSE,FALSE,FALSE,FALSE,FALSE,FALSE,FALSE,FALSE,FALSE,FALSE,FALSE,FALSE,FALSE,PX1,FALSE,TRUE
PUBLIX PHARMACY #0157,19100 SOUTH TAMIAMI TRAIL,,FT MYERS,FL,33908,,26.462192,-81.830268,POINT (-81.830268 26.462192),12/6/2024 0:00,TRUE,,,FALSE,FALSE,FALSE,FALSE,FALSE,FALSE,FALSE,FALSE,FALSE,FALSE,FALSE,FALSE,FALSE,FALSE,FALSE,FALSE,FALSE,PX1,FALSE,TRUE
CVS PHARMACY #08383,5151 BELLE TERRE PKWY,,PALM COAST,FL,32137,386-446-9449,29.552728,-81.237985,POINT (-81.237985 29.552728),12/6/2024 0:00,TRUE,,,FALSE,FALSE,FALSE,TRUE,TRUE,TRUE,FALSE,TRUE,TRUE,FALSE,FALSE,TRUE,TRUE,FALSE,FALSE,FALSE,FALSE,CV1,TRUE,TRUE
HOBBS PHARMACY,133 N BANANA RIVER DR,,MERRITT ISLAND,FL,32952,,28.358676,-80.665203,POINT (-80.665203 28.358676),12/6/2024 0:00,TRUE,,,FALSE,FALSE,FALSE,FALSE,FALSE,FALSE,FALSE,FALSE,FALSE,FALSE,FALSE,FALSE,FALSE,FALSE,FALSE,FALSE,FALSE,MS1,FALSE,TRUE
WALMART PHARMACY 10-3207,1601 RINEHART ROAD,,SANFORD,FL,32771,,28.802533,-81.32888,POINT (-81.32888 28.802533),12/6/2024 0:00,TRUE,,,FALSE,FALSE,FALSE,FALSE,FALSE,FALSE,FALSE,FALSE,FALSE,FALSE,FALSE,FALSE,FALSE,FALSE,FALSE,FALSE,FALSE,WM1,FALSE,TRUE
WALGREENS #11939,8450 SW 24TH STREET,,MIAMI,FL,33155-2334,,25.747205,-80.332232,POINT (-80.332232 25.747205),12/6/2024 0:00,TRUE,,,FALSE,FALSE,FALSE,FALSE,FALSE,FALSE,FALSE,FALSE,FALSE,FALSE,FALSE,FALSE,FALSE,FALSE,FALSE,FALSE,FALSE,WG1,FALSE,TRUE
WALMART PHARMACY 10-5220,8220 NORTH DALE MABRY HIGHWAY,,TAMPA,FL,33614,,28.022518,-82.506881,POINT (-82.506881 28.022518),12/6/2024 0:00,TRUE,,,FALSE,FALSE,FALSE,FALSE,FALSE,FALSE,FALSE,FALSE,FALSE,FALSE,FALSE,FALSE,FALSE,FALSE,FALSE,FALSE,FALSE,WM1,FALSE,TRUE
WALMART PHARMACY 10-2727,33501 SO. DIXIE HWY.,,FLORIDA CITY,FL,33034,,25.457536,-80.474437,POINT (-80.474437 25.457536),12/6/2024 0:00,TRUE,,,FALSE,FALSE,FALSE,FALSE,FALSE,FALSE,FALSE,FALSE,FALSE,FALSE,FALSE,FALSE,FALSE,FALSE,FALSE,FALSE,FALSE,WM1,FALSE,TRUE
PUBLIX PHARMACY #0133,4870 SOUTH APOPKA VINELAND RD,,ORLANDO,FL,32819,,28.48409,-81.50573,POINT (-81.50573 28.48409),12/6/2024 0:00,TRUE,,,FALSE,FALSE,FALSE,FALSE,FALSE,FALSE,FALSE,FALSE,FALSE,FALSE,FALSE,FALSE,FALSE,FALSE,FALSE,FALSE,FALSE,PX1,FALSE,TRUE
PUBLIX PHARMACY #1076,617 US HIGHWAY 17 92 WEST,,HAINES CITY,FL,33844,,28.106485,-81.6384,POINT (-81.6384 28.106485),12/6/2024 0:00,TRUE,,,FALSE,FALSE,FALSE,FALSE,FALSE,FALSE,FALSE,FALSE,FALSE,FALSE,FALSE,FALSE,FALSE,FALSE,FALSE,FALSE,FALSE,PX1,FALSE,TRUE
CVS PHARMACY #08381,5208 E COUNTY RD 466,,THE VILLAGES,FL,32162,352-751-4700,28.927928,-82.016461,POINT (-82.016461 28.927928),12/6/2024 0:00,TRUE,,,FALSE,FALSE,FALSE,TRUE,TRUE,TRUE,FALSE,TRUE,TRUE,FALSE,FALSE,TRUE,TRUE,FALSE,FALSE,FALSE,FALSE,CV1,TRUE,TRUE
CVS PHARMACY #08373,1301 N DIXIE HWY,,WEST PALM BEACH,FL,33401,561-366-1125,26.724938,-80.053535,POINT (-80.053535 26.724938),12/6/2024 0:00,TRUE,,,FALSE,FALSE,FALSE,TRUE,TRUE,TRUE,FALSE,TRUE,TRUE,FALSE,FALSE,TRUE,TRUE,FALSE,FALSE,FALSE,FALSE,CV1,TRUE,TRUE
WALGREENS #7105,11010 BLOOMINGDALE AVE,,RIVERVIEW,FL,33578-3617,,27.894068,-82.31942,POINT (-82.31942 27.894068),12/6/2024 0:00,TRUE,,,FALSE,FALSE,FALSE,FALSE,FALSE,FALSE,FALSE,FALSE,FALSE,FALSE,FALSE,FALSE,FALSE,FALSE,FALSE,FALSE,FALSE,WG1,FALSE,TRUE
PUBLIX PHARMACY #1070,242 NORTH ORLANDO AVE,,MAITLAND,FL,32751,,28.628664,-81.363277,POINT (-81.363277 28.628664),12/6/2024 0:00,TRUE,,,FALSE,FALSE,FALSE,FALSE,FALSE,FALSE,FALSE,FALSE,FALSE,FALSE,FALSE,FALSE,FALSE,FALSE,FALSE,FALSE,FALSE,PX1,FALSE,TRUE
CVS PHARMACY #05154,2599 SW 147TH AVENUE,,MIAMI,FL,33185,305-207-3868,25.743695,-80.431524,POINT (-80.431524 25.743695),12/6/2024 0:00,TRUE,,,FALSE,FALSE,FALSE,TRUE,TRUE,TRUE,FALSE,TRUE,TRUE,FALSE,FALSE,TRUE,TRUE,FALSE,FALSE,FALSE,FALSE,CV1,TRUE,TRUE
WALGREENS #7806,805 HAVENDALE BLVD NW,,WINTER HAVEN,FL,33881-1311,,28.044527,-81.73563,POINT (-81.73563 28.044527),12/6/2024 0:00,TRUE,,,FALSE,FALSE,FALSE,FALSE,FALSE,FALSE,FALSE,FALSE,FALSE,FALSE,FALSE,FALSE,FALSE,FALSE,FALSE,FALSE,FALSE,WG1,FALSE,TRUE
LA CUBANA PHARMACY DISCOUNT,5965 SW 8TH ST STE A,,MIAMI,FL,33144,,25.763636,-80.292478,POINT (-80.292478 25.763636),12/6/2024 0:00,TRUE,,,FALSE,FALSE,FALSE,FALSE,FALSE,FALSE,FALSE,FALSE,FALSE,FALSE,FALSE,FALSE,FALSE,FALSE,FALSE,FALSE,FALSE,GN1,FALSE,TRUE
PUBLIX PHARMACY #1048,1501 MEETING PLACE,,ORLANDO,FL,32814,,28.56672,-81.327138,POINT (-81.327138 28.56672),12/6/2024 0:00,TRUE,,,FALSE,FALSE,FALSE,FALSE,FALSE,FALSE,FALSE,FALSE,FALSE,FALSE,FALSE,FALSE,FALSE,FALSE,FALSE,FALSE,FALSE,PX1,FALSE,TRUE
PUBLIX PHARMACY #1103,606 HAVENDALE BLVD,,AUBURNDALE,FL,33823,,28.05206,-81.775002,POINT (-81.775002 28.05206),12/6/2024 0:00,TRUE,,,FALSE,FALSE,FALSE,FALSE,FALSE,FALSE,FALSE,FALSE,FALSE,FALSE,FALSE,FALSE,FALSE,FALSE,FALSE,FALSE,FALSE,PX1,FALSE,TRUE
WALGREENS #3332,3601 BEE RIDGE RD,,SARASOTA,FL,34233-1002,,27.299489,-82.497103,POINT (-82.497103 27.299489),12/6/2024 0:00,TRUE,,,FALSE,FALSE,FALSE,FALSE,FALSE,FALSE,FALSE,FALSE,FALSE,FALSE,FALSE,FALSE,FALSE,FALSE,FALSE,FALSE,FALSE,WG1,FALSE,TRUE
HEALTHLINK PHARMACY,3301 W WATERS AVE STE 101,,TAMPA,FL,33614,,28.025791,-82.494754,POINT (-82.494754 28.025791),12/6/2024 0:00,TRUE,,,FALSE,FALSE,FALSE,FALSE,FALSE,FALSE,FALSE,FALSE,FALSE,FALSE,FALSE,FALSE,FALSE,FALSE,FALSE,FALSE,FALSE,,FALSE,TRUE
PUBLIX PHARMACY #0126,9720 CLINT MOORE ROAD,,BOCA RATON,FL,33496,,26.407789,-80.2001,POINT (-80.2001 26.407789),12/6/2024 0:00,TRUE,,,FALSE,FALSE,FALSE,FALSE,FALSE,FALSE,FALSE,FALSE,FALSE,FALSE,FALSE,FALSE,FALSE,FALSE,FALSE,FALSE,FALSE,PX1,FALSE,TRUE
HALLIDAYS KOIVISTOS PHARMACY,4133 UNIVERSITY BLVD S,STE 1,JACKSONVILLE,FL,32216-4316,,30.3468,-81.60981,POINT (-81.60981 30.3468),12/6/2024 0:00,TRUE,,,FALSE,FALSE,FALSE,FALSE,FALSE,FALSE,FALSE,FALSE,FALSE,FALSE,FALSE,FALSE,FALSE,FALSE,FALSE,FALSE,FALSE,,FALSE,TRUE
SOUTH POINT PHARMACY,1864 W FLAGLER ST,,MIAMI,FL,33135,,25.772439,-80.226007,POINT (-80.226007 25.772439),12/6/2024 0:00,TRUE,,,FALSE,FALSE,FALSE,FALSE,FALSE,FALSE,FALSE,FALSE,FALSE,FALSE,FALSE,FALSE,FALSE,FALSE,FALSE,FALSE,FALSE,,FALSE,TRUE
SAMS PHARMACY 10-6361,740 BEAL PKWY NW,,FT WALTON BEACH,FL,32547-3002,,30.439263,-86.641131,POINT (-86.641131 30.439263),12/6/2024 0:00,TRUE,,,FALSE,FALSE,FALSE,FALSE,FALSE,FALSE,FALSE,FALSE,FALSE,FALSE,FALSE,FALSE,FALSE,FALSE,FALSE,FALSE,FALSE,WM1,FALSE,TRUE
LAS OLAS CHEMIST,1211 E LAS OLAS BLVD,,FT LAUDERDALE,FL,33301,,26.119527,-80.130735,POINT (-80.130735 26.119527),12/6/2024 0:00,TRUE,,,FALSE,FALSE,FALSE,FALSE,FALSE,FALSE,FALSE,FALSE,FALSE,FALSE,FALSE,FALSE,FALSE,FALSE,FALSE,FALSE,FALSE,FLA,FALSE,TRUE
CVS PHARMACY #05854,2187 HOWLAND BLVD,,DELTONA,FL,32738,386-789-0813,28.925802,-81.190503,POINT (-81.190503 28.925802),12/6/2024 0:00,TRUE,,,FALSE,FALSE,FALSE,TRUE,TRUE,TRUE,FALSE,TRUE,TRUE,FALSE,FALSE,TRUE,TRUE,FALSE,FALSE,FALSE,FALSE,CV1,TRUE,TRUE
WALGREENS #4120,3573 N FEDERAL HWY,,POMPANO BEACH,FL,33064-6607,,26.27503,-80.096757,POINT (-80.096757 26.27503),12/6/2024 0:00,TRUE,,,FALSE,FALSE,FALSE,FALSE,FALSE,FALSE,FALSE,FALSE,FALSE,FALSE,FALSE,FALSE,FALSE,FALSE,FALSE,FALSE,FALSE,WG1,FALSE,TRUE
WALGREENS #3963,6003 14TH ST W,,BRADENTON,FL,34207-4105,,27.434454,-82.574887,POINT (-82.574887 27.434454),12/6/2024 0:00,TRUE,,,FALSE,FALSE,FALSE,FALSE,FALSE,FALSE,FALSE,FALSE,FALSE,FALSE,FALSE,FALSE,FALSE,FALSE,FALSE,FALSE,FALSE,WG1,FALSE,TRUE
WALGREENS #3830,1947 FRUITVILLE ROAD,,SARASOTA,FL,34236-4203,,27.339317,-82.531567,POINT (-82.531567 27.339317),12/6/2024 0:00,TRUE,,,FALSE,FALSE,FALSE,FALSE,FALSE,FALSE,FALSE,FALSE,FALSE,FALSE,FALSE,FALSE,FALSE,FALSE,FALSE,FALSE,FALSE,WG1,FALSE,TRUE
WALGREENS #2665,3350 CENTRAL AVE,,ST PETERSBURG,FL,33712-1021,,27.770507,-82.678833,POINT (-82.678833 27.770507),12/6/2024 0:00,TRUE,,,FALSE,FALSE,FALSE,FALSE,FALSE,FALSE,FALSE,FALSE,FALSE,FALSE,FALSE,FALSE,FALSE,FALSE,FALSE,FALSE,FALSE,WG1,FALSE,TRUE
WALGREENS #2230,5420 9TH ST NORTH,,ST PETERSBURG,FL,33703-1202,,27.821647,-82.647644,POINT (-82.647644 27.821647),12/6/2024 0:00,TRUE,,,FALSE,FALSE,FALSE,FALSE,FALSE,FALSE,FALSE,FALSE,FALSE,FALSE,FALSE,FALSE,FALSE,FALSE,FALSE,FALSE,FALSE,WG1,FALSE,TRUE
WALGREENS #3863,4141 W HILLSBOROUGH AVE,,TAMPA,FL,33614-5631,,27.99672,-82.512854,POINT (-82.512854 27.99672),12/6/2024 0:00,TRUE,,,FALSE,FALSE,FALSE,FALSE,FALSE,FALSE,FALSE,FALSE,FALSE,FALSE,FALSE,FALSE,FALSE,FALSE,FALSE,FALSE,FALSE,WG1,FALSE,TRUE
CVS PHARMACY #00139,6820 GULFPORT BLVD S,,SOUTH PASADENA,FL,33707-2108,,27.757136,-82.733658,POINT (-82.733658 27.757136),12/6/2024 0:00,TRUE,,,FALSE,FALSE,FALSE,FALSE,FALSE,FALSE,FALSE,FALSE,FALSE,FALSE,FALSE,FALSE,FALSE,FALSE,FALSE,FALSE,FALSE,CV1,FALSE,TRUE
CVS PHARMACY #00171,7400 49TH ST N,,PINELLAS PARK,FL,33781,727-544-1491,27.839972,-82.700542,POINT (-82.700542 27.839972),12/6/2024 0:00,TRUE,,,FALSE,FALSE,FALSE,TRUE,TRUE,TRUE,FALSE,TRUE,TRUE,FALSE,FALSE,TRUE,TRUE,FALSE,FALSE,FALSE,FALSE,CV1,TRUE,TRUE
CVS PHARMACY #00176,970 CYPRESS GARDENS BLVD,,WINTER HAVEN,FL,33880,863-294-3138,28.003528,-81.713368,POINT (-81.713368 28.003528),12/6/2024 0:00,TRUE,,,FALSE,FALSE,FALSE,TRUE,TRUE,TRUE,FALSE,TRUE,TRUE,FALSE,FALSE,TRUE,TRUE,FALSE,FALSE,FALSE,FALSE,CV1,TRUE,TRUE
CVS PHARMACY #00188,13998 WALSINGHAM RD,,LARGO,FL,33774,727-595-2521,27.879704,-82.832914,POINT (-82.832914 27.879704),12/6/2024 0:00,TRUE,,,FALSE,FALSE,FALSE,TRUE,TRUE,TRUE,FALSE,TRUE,TRUE,FALSE,FALSE,TRUE,TRUE,FALSE,FALSE,FALSE,FALSE,CV1,TRUE,TRUE
CVS PHARMACY #00262,400 6TH ST NW,,WINTER HAVEN,FL,33881,863-294-4493,28.02636,-81.732312,POINT (-81.732312 28.02636),12/6/2024 0:00,TRUE,,,FALSE,FALSE,FALSE,TRUE,TRUE,TRUE,FALSE,TRUE,TRUE,FALSE,FALSE,TRUE,TRUE,TRUE,FALSE,FALSE,FALSE,CV1,TRUE,TRUE
CVS PHARMACY #00306,5432 US HWY 19 N,,NEW PORT RICHEY,FL,34652,727-843-8645,28.238489,-82.726873,POINT (-82.726873 28.238489),12/6/2024 0:00,TRUE,,,FALSE,FALSE,FALSE,TRUE,TRUE,TRUE,FALSE,TRUE,TRUE,FALSE,FALSE,TRUE,TRUE,FALSE,FALSE,FALSE,FALSE,CV1,TRUE,TRUE
CVS PHARMACY #00319,4301 BEE RIDGE RD,,SARASOTA,FL,34233,941-371-6328,27.299147,-82.481703,POINT (-82.481703 27.299147),12/6/2024 0:00,TRUE,,,FALSE,FALSE,FALSE,TRUE,TRUE,TRUE,FALSE,TRUE,TRUE,FALSE,FALSE,TRUE,TRUE,FALSE,FALSE,FALSE,FALSE,CV1,TRUE,TRUE
CVS PHARMACY #01816,5296 TAMIAMI TRL N,,NAPLES,FL,34103,239-261-6444,26.21056,-81.799826,POINT (-81.799826 26.21056),12/6/2024 0:00,TRUE,,,FALSE,FALSE,FALSE,TRUE,TRUE,TRUE,FALSE,TRUE,TRUE,FALSE,FALSE,TRUE,TRUE,FALSE,FALSE,FALSE,FALSE,CV1,TRUE,TRUE
MAX DRUGS,4343 S. ST RD 7,SUITE 107,DAVIE,FL,33314,,26.062593,-80.25006,POINT (-80.25006 26.062593),12/6/2024 0:00,TRUE,,,FALSE,FALSE,FALSE,FALSE,FALSE,FALSE,FALSE,FALSE,FALSE,FALSE,FALSE,FALSE,FALSE,FALSE,FALSE,FALSE,FALSE,,FALSE,TRUE
PUBLIX PHARMACY #1046,127 SOUTH STATE ROAD 7,,WELLINGTON,FL,33414,,26.675422,-80.205576,POINT (-80.205576 26.675422),12/6/2024 0:00,TRUE,,,FALSE,FALSE,FALSE,FALSE,FALSE,FALSE,FALSE,FALSE,FALSE,FALSE,FALSE,FALSE,FALSE,FALSE,FALSE,FALSE,FALSE,PX1,FALSE,TRUE
FORT MYERS PRESCRIPTION SHOP,13195 METRO PKWY,SUITE 3,FORT MYERS,FL,33966,,26.551018,-81.852019,POINT (-81.852019 26.551018),12/6/2024 0:00,TRUE,,,FALSE,FALSE,FALSE,FALSE,FALSE,FALSE,FALSE,FALSE,FALSE,FALSE,FALSE,FALSE,FALSE,FALSE,FALSE,FALSE,FALSE,,FALSE,TRUE
ISLAND FAMILY PHARMACY,600 PLANTATION ISLAND DR S UNIT 3,,ST AUGUSTINE,FL,32080,,29.86223,-81.292702,POINT (-81.292702 29.86223),12/6/2024 0:00,TRUE,,,FALSE,FALSE,FALSE,FALSE,FALSE,FALSE,FALSE,FALSE,FALSE,FALSE,FALSE,FALSE,FALSE,FALSE,FALSE,FALSE,FALSE,GN1,FALSE,TRUE
CVS PHARMACY #00280,2527 ALOMA AVENUE,,WINTER PARK,FL,32792,407-678-5151,28.602396,-81.318491,POINT (-81.318491 28.602396),12/6/2024 0:00,TRUE,,,FALSE,FALSE,FALSE,TRUE,TRUE,TRUE,FALSE,TRUE,TRUE,FALSE,FALSE,TRUE,TRUE,FALSE,FALSE,FALSE,FALSE,CV1,TRUE,TRUE
CVS PHARMACY #00367,3580 N FEDERAL HWY,,LIGHTHOUSE POINT,FL,33064,954-943-3244,26.274527,-80.100158,POINT (-80.100158 26.274527),12/6/2024 0:00,TRUE,,,FALSE,FALSE,FALSE,TRUE,TRUE,TRUE,FALSE,TRUE,TRUE,FALSE,FALSE,TRUE,TRUE,FALSE,FALSE,FALSE,FALSE,CV1,TRUE,TRUE
CVS PHARMACY #00410,2150 E COMMERCIAL BLVD,,FT LAUDERDALE,FL,33334,,26.188844,-80.116373,POINT (-80.116373 26.188844),12/6/2024 0:00,TRUE,,,FALSE,FALSE,FALSE,FALSE,FALSE,FALSE,FALSE,FALSE,FALSE,FALSE,FALSE,FALSE,FALSE,FALSE,FALSE,FALSE,FALSE,CV1,FALSE,TRUE
WALGREENS #6860,3405 LITHIA PINECREST RD,,VALRICO,FL,33596,,27.893235,-82.242563,POINT (-82.242563 27.893235),12/6/2024 0:00,TRUE,,,FALSE,FALSE,FALSE,FALSE,FALSE,FALSE,FALSE,FALSE,FALSE,FALSE,FALSE,FALSE,FALSE,FALSE,FALSE,FALSE,FALSE,WG1,FALSE,TRUE
CVS PHARMACY #00508,1205 W VINE ST,,KISSIMMEE,FL,34741,407-847-5174,28.305091,-81.416565,POINT (-81.416565 28.305091),12/6/2024 0:00,TRUE,,,FALSE,FALSE,FALSE,TRUE,TRUE,TRUE,FALSE,TRUE,TRUE,FALSE,FALSE,TRUE,TRUE,FALSE,FALSE,FALSE,FALSE,CV1,TRUE,TRUE
CVS PHARMACY #00554,690 NW 57TH AVENUE,,MIAMI,FL,33126,305-264-3485,25.777516,-80.288846,POINT (-80.288846 25.777516),12/6/2024 0:00,TRUE,,,FALSE,FALSE,FALSE,TRUE,TRUE,TRUE,FALSE,TRUE,TRUE,FALSE,FALSE,TRUE,TRUE,FALSE,FALSE,FALSE,FALSE,CV1,TRUE,TRUE
CVS PHARMACY #00584,1706 US HWY 1,,VERO BEACH,FL,32960,772-567-7136,27.63286,-80.388105,POINT (-80.388105 27.63286),12/6/2024 0:00,TRUE,,,FALSE,FALSE,FALSE,TRUE,TRUE,TRUE,FALSE,TRUE,TRUE,FALSE,FALSE,TRUE,TRUE,FALSE,FALSE,FALSE,FALSE,CV1,TRUE,TRUE
CVS PHARMACY #00591,8695 CORAL WAY,,MIAMI,FL,33155,305-264-4811,25.748196,-80.334811,POINT (-80.334811 25.748196),12/6/2024 0:00,TRUE,,,FALSE,FALSE,FALSE,TRUE,TRUE,TRUE,FALSE,TRUE,TRUE,FALSE,FALSE,TRUE,TRUE,FALSE,FALSE,FALSE,FALSE,CV1,TRUE,TRUE
CVS PHARMACY #00866,9031 SW 107TH AVE,,MIAMI,FL,33176,305-274-6776,25.684759,-80.366806,POINT (-80.366806 25.684759),12/6/2024 0:00,TRUE,,,FALSE,FALSE,FALSE,TRUE,TRUE,TRUE,FALSE,TRUE,TRUE,FALSE,FALSE,TRUE,TRUE,FALSE,TRUE,FALSE,FALSE,CV1,TRUE,TRUE
CVS PHARMACY #00981,3501 W DAVIE BLVD,,FORT LAUDERDALE,FL,33312,954-583-9195,26.10480125,-80.19738525,POINT (-80.19738525 26.10480125),12/6/2024 0:00,TRUE,,,FALSE,FALSE,FALSE,TRUE,TRUE,TRUE,FALSE,TRUE,TRUE,FALSE,FALSE,TRUE,TRUE,FALSE,FALSE,FALSE,FALSE,CV1,TRUE,TRUE
CVS PHARMACY #01114,4475 SAN JUAN AVE,,JACKSONVILLE,FL,32210,904-389-0314,30.282749,-81.719738,POINT (-81.719738 30.282749),12/6/2024 0:00,TRUE,,,FALSE,FALSE,FALSE,TRUE,TRUE,TRUE,FALSE,TRUE,TRUE,FALSE,FALSE,TRUE,TRUE,FALSE,FALSE,FALSE,FALSE,CV1,TRUE,TRUE
CVS PHARMACY #01256,1300 APALACHEE PKWY,,TALLAHASSEE,FL,32301,850-877-5168,30.43774,-84.26122,POINT (-84.26122 30.43774),12/6/2024 0:00,TRUE,,,FALSE,FALSE,FALSE,TRUE,TRUE,TRUE,FALSE,TRUE,TRUE,FALSE,FALSE,TRUE,TRUE,FALSE,FALSE,FALSE,FALSE,CV1,TRUE,TRUE
CVS PHARMACY #01314,1201 E COLONIAL DR,,ORLANDO,FL,32803,407-894-1521,28.553359,-81.364128,POINT (-81.364128 28.553359),12/6/2024 0:00,TRUE,,,FALSE,FALSE,FALSE,TRUE,TRUE,TRUE,FALSE,TRUE,TRUE,FALSE,FALSE,TRUE,TRUE,FALSE,FALSE,FALSE,FALSE,CV1,TRUE,TRUE
CVS PHARMACY #01318,1596 HWY A1A,,SATELLITE BEACH,FL,32937,321-773-7611,28.165258,-80.588193,POINT (-80.588193 28.165258),12/6/2024 0:00,TRUE,,,FALSE,FALSE,FALSE,TRUE,TRUE,TRUE,FALSE,TRUE,TRUE,FALSE,FALSE,TRUE,TRUE,FALSE,FALSE,FALSE,FALSE,CV1,TRUE,TRUE
CVS PHARMACY #01815,4354 NW 23RD AVE,,GAINESVILLE,FL,32606-6541,352-376-4565,29.674475,-82.389509,POINT (-82.389509 29.674475),12/6/2024 0:00,TRUE,,,FALSE,FALSE,FALSE,TRUE,TRUE,TRUE,FALSE,TRUE,TRUE,FALSE,FALSE,TRUE,TRUE,FALSE,TRUE,FALSE,FALSE,CV1,TRUE,TRUE
WALMART PHARMACY 10-5301,4375 BELVEDERE ROAD,,WEST PALM BEACH,FL,33406,,26.69363,-80.109223,POINT (-80.109223 26.69363),12/6/2024 0:00,TRUE,,,FALSE,FALSE,FALSE,FALSE,FALSE,FALSE,FALSE,FALSE,FALSE,FALSE,FALSE,FALSE,FALSE,FALSE,FALSE,FALSE,FALSE,WM1,FALSE,TRUE
WALGREENS #7109,3600 WINTER GARDEN VINELAND RD,,WINTER GARDEN,FL,34787-5482,,28.505338,-81.587661,POINT (-81.587661 28.505338),12/6/2024 0:00,TRUE,,,FALSE,FALSE,FALSE,FALSE,FALSE,FALSE,FALSE,FALSE,FALSE,FALSE,FALSE,FALSE,FALSE,FALSE,FALSE,FALSE,FALSE,WG1,FALSE,TRUE
WALGREENS #2224,4747 SW COLLEGE RD,,OCALA,FL,34474-5719,,29.137364,-82.199045,POINT (-82.199045 29.137364),12/6/2024 0:00,TRUE,,,FALSE,FALSE,FALSE,FALSE,FALSE,FALSE,FALSE,FALSE,FALSE,FALSE,FALSE,FALSE,FALSE,FALSE,FALSE,FALSE,FALSE,WG1,FALSE,TRUE
CVS PHARMACY #05919,6900 N UNIVERSITY DRIVE,,TAMARAC,FL,33321,,26.207837,-80.251727,POINT (-80.251727 26.207837),12/6/2024 0:00,TRUE,,,FALSE,FALSE,FALSE,FALSE,FALSE,FALSE,FALSE,FALSE,FALSE,FALSE,FALSE,FALSE,FALSE,FALSE,FALSE,FALSE,FALSE,CV1,FALSE,TRUE
JACKSON PACE PHARMACY,2256 W NINE MILE RD,,PENSACOLA,FL,32534,,30.532719,-87.27546,POINT (-87.27546 30.532719),12/6/2024 0:00,TRUE,,,FALSE,FALSE,FALSE,FALSE,FALSE,FALSE,FALSE,FALSE,FALSE,FALSE,FALSE,FALSE,FALSE,FALSE,FALSE,FALSE,FALSE,,FALSE,TRUE
CVS PHARMACY #03001,467 MANDALAY AVE,,CLEARWATER BEACH,FL,33767,727-447-6429,27.980918,-82.82684,POINT (-82.82684 27.980918),12/6/2024 0:00,TRUE,,,FALSE,FALSE,FALSE,TRUE,FALSE,FALSE,FALSE,FALSE,FALSE,FALSE,FALSE,FALSE,TRUE,FALSE,FALSE,FALSE,FALSE,CV1,TRUE,TRUE
WALGREENS #6181,5475 MURRELL RD,,ROCKLEDGE,FL,32955-6665,,28.266062,-80.71743,POINT (-80.71743 28.266062),12/6/2024 0:00,TRUE,,,FALSE,FALSE,FALSE,FALSE,FALSE,FALSE,FALSE,FALSE,FALSE,FALSE,FALSE,FALSE,FALSE,FALSE,FALSE,FALSE,FALSE,WG1,FALSE,TRUE
CVS PHARMACY #16192,8401 S TAMIAMI TRL,,SARASOTA,FL,34238,941-921-6893,27.228395,-82.492547,POINT (-82.492547 27.228395),12/6/2024 0:00,TRUE,,,FALSE,FALSE,FALSE,TRUE,TRUE,TRUE,FALSE,TRUE,TRUE,FALSE,FALSE,TRUE,TRUE,FALSE,FALSE,FALSE,FALSE,CV1,TRUE,TRUE
CVS PHARMACY #17036,4795 W IRLO BRONSON MEMORIAL HWY,,KISSIMMEE,FL,34746,407-594-0030,28.332053,-81.47117,POINT (-81.47117 28.332053),12/6/2024 0:00,TRUE,,,FALSE,FALSE,FALSE,TRUE,TRUE,TRUE,FALSE,FALSE,FALSE,FALSE,FALSE,TRUE,TRUE,FALSE,FALSE,FALSE,FALSE,CV1,TRUE,TRUE
CVS PHARMACY #17052,8455 N WICKHAM RD,,MELBOURNE,FL,32940,321-752-1870,28.227748,-80.71996,POINT (-80.71996 28.227748),12/6/2024 0:00,TRUE,,,FALSE,FALSE,FALSE,TRUE,TRUE,TRUE,FALSE,TRUE,TRUE,FALSE,FALSE,TRUE,TRUE,FALSE,FALSE,FALSE,FALSE,CV1,TRUE,TRUE
PUBLIX PHARMACY #1106,13450 SUMMERPORT VILLAGE PKWY,,WINDERMERE,FL,34786,,28.476493,-81.583801,POINT (-81.583801 28.476493),12/6/2024 0:00,TRUE,,,FALSE,FALSE,FALSE,FALSE,FALSE,FALSE,FALSE,FALSE,FALSE,FALSE,FALSE,FALSE,FALSE,FALSE,FALSE,FALSE,FALSE,PX1,FALSE,TRUE
PUBLIX PHARMACY #1020,5127 US 19 SOUTH,,NEW PORT RICHEY,FL,34652,,28.234054,-82.730602,POINT (-82.730602 28.234054),12/6/2024 0:00,TRUE,,,FALSE,FALSE,FALSE,FALSE,FALSE,FALSE,FALSE,FALSE,FALSE,FALSE,FALSE,FALSE,FALSE,FALSE,FALSE,FALSE,FALSE,PX1,FALSE,TRUE
PUBLIX PHARMACY #1017,14641 BISCAYNE BLVD,,NORTH MIAMI BEACH,FL,33181,,25.911435,-80.15571,POINT (-80.15571 25.911435),12/6/2024 0:00,TRUE,,,FALSE,FALSE,FALSE,FALSE,FALSE,FALSE,FALSE,FALSE,FALSE,FALSE,FALSE,FALSE,FALSE,FALSE,FALSE,FALSE,FALSE,PX1,FALSE,TRUE
CVS PHARMACY #01055,2090 S HWY 29,,CANTONMENT,FL,32533,,30.570696,-87.290223,POINT (-87.290223 30.570696),12/6/2024 0:00,TRUE,,,FALSE,FALSE,FALSE,FALSE,FALSE,FALSE,FALSE,FALSE,FALSE,FALSE,FALSE,FALSE,FALSE,FALSE,FALSE,FALSE,FALSE,CV1,FALSE,TRUE
PUBLIX PHARMACY #1109,5855 WEST OAKLAND PARK BLVD,,LAUDERHILL,FL,33313,,26.166152,-80.230167,POINT (-80.230167 26.166152),12/6/2024 0:00,TRUE,,,FALSE,FALSE,FALSE,FALSE,FALSE,FALSE,FALSE,FALSE,FALSE,FALSE,FALSE,FALSE,FALSE,FALSE,FALSE,FALSE,FALSE,PX1,FALSE,TRUE
PUBLIX PHARMACY #1097,1940 CORDOVA ROAD,,FT LAUDERDALE,FL,33316,,26.09716,-80.130129,POINT (-80.130129 26.09716),12/6/2024 0:00,TRUE,,,FALSE,FALSE,FALSE,FALSE,FALSE,FALSE,FALSE,FALSE,FALSE,FALSE,FALSE,FALSE,FALSE,FALSE,FALSE,FALSE,FALSE,PX1,FALSE,TRUE
PUBLIX PHARMACY #1094,1415 EAST SUNRISE BLVD,,FT LAUDERDALE,FL,33304,,26.138394,-80.129287,POINT (-80.129287 26.138394),12/6/2024 0:00,TRUE,,,FALSE,FALSE,FALSE,FALSE,FALSE,FALSE,FALSE,FALSE,FALSE,FALSE,FALSE,FALSE,FALSE,FALSE,FALSE,FALSE,FALSE,PX1,FALSE,TRUE
PUBLIX PHARMACY #1088,8975 RACE TRACK ROAD,,TAMPA,FL,33635,,28.035739,-82.646664,POINT (-82.646664 28.035739),12/6/2024 0:00,TRUE,,,FALSE,FALSE,FALSE,FALSE,FALSE,FALSE,FALSE,FALSE,FALSE,FALSE,FALSE,FALSE,FALSE,FALSE,FALSE,FALSE,FALSE,PX1,FALSE,TRUE
LINCOURT PHARMACY,501 S LINCOLN AVE,STE 10R,CLEARWATER,FL,33756,,27.960461,-82.785508,POINT (-82.785508 27.960461),12/6/2024 0:00,TRUE,,,FALSE,FALSE,FALSE,FALSE,FALSE,FALSE,FALSE,FALSE,FALSE,FALSE,FALSE,FALSE,FALSE,FALSE,FALSE,FALSE,FALSE,FLA,FALSE,TRUE
UNIVERSITY PHARMACY OF CORAL GABLES,217 VALENCIA AVE,,CORAL GABLES,FL,33134,,25.748067,-80.259134,POINT (-80.259134 25.748067),12/6/2024 0:00,TRUE,,,FALSE,FALSE,FALSE,FALSE,FALSE,FALSE,FALSE,FALSE,FALSE,FALSE,FALSE,FALSE,FALSE,FALSE,FALSE,FALSE,FALSE,,FALSE,TRUE
CHEEK PHARMACY,16734 SE 19 HWY,,CROSS CITY,FL,32628-5020,,29.632651,-83.123569,POINT (-83.123569 29.632651),12/6/2024 0:00,TRUE,,,FALSE,FALSE,FALSE,FALSE,FALSE,FALSE,FALSE,FALSE,FALSE,FALSE,FALSE,FALSE,FALSE,FALSE,FALSE,FALSE,FALSE,MS1,FALSE,TRUE
LIMESTONE DRUG,200 W MARKET ST,,ATHENS,AL,35611-0709,,34.803594,-86.971161,POINT (-86.971161 34.803594),12/6/2024 0:00,TRUE,,,FALSE,FALSE,FALSE,FALSE,FALSE,FALSE,FALSE,FALSE,FALSE,FALSE,FALSE,FALSE,FALSE,FALSE,FALSE,FALSE,FALSE,,FALSE,TRUE
CVS PHARMACY #07225,5905 US HIGHWAY 301 SOUTH,,RIVERVIEW,FL,33578,,27.894429,-82.339531,POINT (-82.339531 27.894429),12/6/2024 0:00,TRUE,,,FALSE,FALSE,FALSE,FALSE,FALSE,FALSE,FALSE,FALSE,FALSE,FALSE,FALSE,FALSE,FALSE,FALSE,FALSE,FALSE,FALSE,CV1,FALSE,TRUE
STEVES PHARMACY,636 MASON AVE,,DAYTONA BEACH,FL,32117-4891,,29.223926,-81.038174,POINT (-81.038174 29.223926),12/6/2024 0:00,TRUE,,,FALSE,FALSE,FALSE,FALSE,FALSE,FALSE,FALSE,FALSE,FALSE,FALSE,FALSE,FALSE,FALSE,FALSE,FALSE,FALSE,FALSE,MS1,FALSE,TRUE
GULFSTREAM PHARMACY,4998 N OCEAN BLVD,,BOYNTON BEACH,FL,33435-7341,,26.48064,-80.06032,POINT (-80.06032 26.48064),12/6/2024 0:00,TRUE,,,FALSE,FALSE,FALSE,FALSE,FALSE,FALSE,FALSE,FALSE,FALSE,FALSE,FALSE,FALSE,FALSE,FALSE,FALSE,FALSE,FALSE,,FALSE,TRUE
SOUTH COUNTY MENTAL HEALTH CENTER,16158 S MILITARY TRL,,DELRAY BEACH,FL,33484,,26.436875,-80.121427,POINT (-80.121427 26.436875),12/6/2024 0:00,TRUE,,,FALSE,FALSE,FALSE,FALSE,FALSE,FALSE,FALSE,FALSE,FALSE,FALSE,FALSE,FALSE,FALSE,FALSE,FALSE,FALSE,FALSE,,FALSE,TRUE
WALGREENS #7819,7085 COUNTY ROAD 46A,,LAKE MARY,FL,32746-4701,,28.785758,-81.358661,POINT (-81.358661 28.785758),12/6/2024 0:00,TRUE,,,FALSE,FALSE,FALSE,FALSE,FALSE,FALSE,FALSE,FALSE,FALSE,FALSE,FALSE,FALSE,FALSE,FALSE,FALSE,FALSE,FALSE,WG1,FALSE,TRUE
CVS PHARMACY #06014,1696 FISKE BLVD,,ROCKLEDGE,FL,32955,,28.331282,-80.742181,POINT (-80.742181 28.331282),12/6/2024 0:00,TRUE,,,FALSE,FALSE,FALSE,FALSE,FALSE,FALSE,FALSE,FALSE,FALSE,FALSE,FALSE,FALSE,FALSE,FALSE,FALSE,FALSE,FALSE,CV1,FALSE,TRUE
"WAAS DRUG STORE, INC",1551 S 14TH ST,STE 1,FERNANDINA BEACH,FL,32034-3936,,30.650058,-81.455058,POINT (-81.455058 30.650058),12/6/2024 0:00,TRUE,,,FALSE,FALSE,FALSE,FALSE,FALSE,FALSE,FALSE,FALSE,FALSE,FALSE,FALSE,FALSE,FALSE,FALSE,FALSE,FALSE,FALSE,,FALSE,TRUE
PROPST DISCOUNT DRUGS,717 PRATT AVE NE,,HUNTSVILLE,AL,35801,,34.739034,-86.575868,POINT (-86.575868 34.739034),12/6/2024 0:00,TRUE,,,FALSE,FALSE,FALSE,FALSE,FALSE,FALSE,FALSE,FALSE,FALSE,FALSE,FALSE,FALSE,FALSE,FALSE,FALSE,FALSE,FALSE,,FALSE,TRUE
THE MEDICINE SHOPPE PHARMACY 1850,1555 EAST BAY DRIVE,,LARGO,FL,33771,,27.916134,-82.771814,POINT (-82.771814 27.916134),12/6/2024 0:00,TRUE,,,FALSE,FALSE,FALSE,FALSE,FALSE,FALSE,FALSE,FALSE,FALSE,FALSE,FALSE,FALSE,FALSE,FALSE,FALSE,FALSE,FALSE,,FALSE,TRUE
GUARDIAN PHARMACY OF SOUTHEAST FLORIDA,6100 BROKEN SOUND PKWY NW,STE 1,BOCA RATON,FL,33487-2790,,26.404969,-80.114973,POINT (-80.114973 26.404969),12/6/2024 0:00,TRUE,,,FALSE,FALSE,FALSE,FALSE,FALSE,FALSE,FALSE,FALSE,FALSE,FALSE,FALSE,FALSE,FALSE,FALSE,FALSE,FALSE,FALSE,MH1,FALSE,TRUE
CVS PHARMACY #07980,121 WEST MACCLENNY AVENUE,,MACCLENNY,FL,32063,904-259-6380,30.282662,-82.124303,POINT (-82.124303 30.282662),12/6/2024 0:00,TRUE,,,FALSE,FALSE,FALSE,TRUE,TRUE,TRUE,FALSE,TRUE,TRUE,FALSE,FALSE,TRUE,TRUE,FALSE,FALSE,FALSE,FALSE,CV1,TRUE,TRUE
CVS PHARMACY #07958,3644 COOLIDGE COURT,,TALLAHASSEE,FL,32311,850-219-6370,30.401869,-84.23389,POINT (-84.23389 30.401869),12/6/2024 0:00,TRUE,,,FALSE,FALSE,FALSE,TRUE,TRUE,TRUE,FALSE,TRUE,TRUE,FALSE,FALSE,TRUE,TRUE,FALSE,FALSE,FALSE,FALSE,CV1,TRUE,TRUE
WALGREENS #6403,199 WESTON RD,,WESTON,FL,33326-1143,,26.120029,-80.362786,POINT (-80.362786 26.120029),12/6/2024 0:00,TRUE,,,FALSE,FALSE,FALSE,FALSE,FALSE,FALSE,FALSE,FALSE,FALSE,FALSE,FALSE,FALSE,FALSE,FALSE,FALSE,FALSE,FALSE,WG1,FALSE,TRUE
GUARDIAN PHARMACY OF JACKSONVILLE,8001 BELFORT PKWY STE 160,,JACKSONVILLE,FL,32256-6966,,30.242904,-81.577307,POINT (-81.577307 30.242904),12/6/2024 0:00,TRUE,,,FALSE,FALSE,FALSE,FALSE,FALSE,FALSE,FALSE,FALSE,FALSE,FALSE,FALSE,FALSE,FALSE,FALSE,FALSE,FALSE,FALSE,MH1,FALSE,TRUE
CVS PHARMACY #07891,8954 LANTANA ROAD,,LAKE WORTH,FL,33467,561-434-4776,26.591535,-80.188509,POINT (-80.188509 26.591535),12/6/2024 0:00,TRUE,,,FALSE,FALSE,FALSE,TRUE,TRUE,TRUE,FALSE,TRUE,TRUE,FALSE,FALSE,TRUE,TRUE,FALSE,FALSE,FALSE,FALSE,CV1,TRUE,TRUE
KINGS DISCOUNT DRUG,1242 MAIN ST,,CHIPLEY,FL,32428,,30.765619,-85.541543,POINT (-85.541543 30.765619),12/6/2024 0:00,TRUE,,,FALSE,FALSE,FALSE,FALSE,FALSE,FALSE,FALSE,FALSE,FALSE,FALSE,FALSE,FALSE,FALSE,FALSE,FALSE,FALSE,FALSE,CP1,FALSE,TRUE
CVS PHARMACY #07886,260 US HIGHWAY 1,,TEQUESTA,FL,33469,,26.958355,-80.085469,POINT (-80.085469 26.958355),12/6/2024 0:00,TRUE,,,FALSE,FALSE,FALSE,FALSE,FALSE,FALSE,FALSE,FALSE,FALSE,FALSE,FALSE,FALSE,FALSE,FALSE,FALSE,FALSE,FALSE,CV1,FALSE,TRUE
CVS PHARMACY #07113,60 SOUTH HOLIDAY ROAD,,MIRAMAR BEACH,FL,32550,850-269-7780,30.384287,-86.380918,POINT (-86.380918 30.384287),12/6/2024 0:00,TRUE,,,FALSE,FALSE,FALSE,TRUE,TRUE,TRUE,FALSE,TRUE,TRUE,FALSE,FALSE,TRUE,TRUE,FALSE,FALSE,FALSE,FALSE,CV1,TRUE,TRUE
FARMACIA CARDENAS,2030 PALM AVE,,HIALEAH,FL,33010-2620,,25.840238,-80.282236,POINT (-80.282236 25.840238),12/6/2024 0:00,TRUE,,,FALSE,FALSE,FALSE,FALSE,FALSE,FALSE,FALSE,FALSE,FALSE,FALSE,FALSE,FALSE,FALSE,FALSE,FALSE,FALSE,FALSE,,FALSE,TRUE
NAVARRO DISCOUNT PHARMACY #10707,14491 SW 42ND ST,,MIAMI,FL,33175,305-514-0299,25.729165,-80.429325,POINT (-80.429325 25.729165),12/6/2024 0:00,TRUE,,,FALSE,FALSE,FALSE,TRUE,TRUE,TRUE,FALSE,TRUE,TRUE,FALSE,FALSE,TRUE,TRUE,FALSE,FALSE,FALSE,FALSE,CV1,TRUE,TRUE
ELY'S PHARMACY,15126 SW 56 ST,,MIAMI,FL,33185,,25.712874,-80.438254,POINT (-80.438254 25.712874),12/6/2024 0:00,TRUE,,,FALSE,FALSE,FALSE,FALSE,FALSE,FALSE,FALSE,FALSE,FALSE,FALSE,FALSE,FALSE,FALSE,FALSE,FALSE,FALSE,FALSE,,FALSE,TRUE
G & H PHARMACY,8091 66TH ST N,,PINELLAS PARK,FL,33781,,27.845547,-82.728144,POINT (-82.728144 27.845547),12/6/2024 0:00,TRUE,,,FALSE,FALSE,FALSE,FALSE,FALSE,FALSE,FALSE,FALSE,FALSE,FALSE,FALSE,FALSE,FALSE,FALSE,FALSE,FALSE,FALSE,,FALSE,TRUE
CVS PHARMACY #07993,2998 SOUTH JOG ROAD,,GREENACRES,FL,33467,561-434-4580,26.631508,-80.145555,POINT (-80.145555 26.631508),12/6/2024 0:00,TRUE,,,FALSE,FALSE,FALSE,TRUE,TRUE,TRUE,FALSE,TRUE,TRUE,FALSE,FALSE,TRUE,TRUE,FALSE,FALSE,FALSE,FALSE,CV1,TRUE,TRUE
PARK SHORE PHARMACON,600 ANSIN BLVD,,HALLANDALE BEACH,FL,33009-2118,,25.992214,-80.16477,POINT (-80.16477 25.992214),12/6/2024 0:00,TRUE,,,FALSE,FALSE,FALSE,FALSE,FALSE,FALSE,FALSE,FALSE,FALSE,FALSE,FALSE,FALSE,FALSE,FALSE,FALSE,FALSE,FALSE,FLA,FALSE,TRUE
RX MEDS PHARMACY,2751 N HIAWASSEE RD,,ORLANDO,FL,32818,,28.580236,-81.474637,POINT (-81.474637 28.580236),12/6/2024 0:00,TRUE,,,FALSE,FALSE,FALSE,FALSE,FALSE,FALSE,FALSE,FALSE,FALSE,FALSE,FALSE,FALSE,FALSE,FALSE,FALSE,FALSE,FALSE,MS1,FALSE,TRUE
CVS PHARMACY #07219,277 W SR 436,,ALTAMONTE SPRINGS,FL,32714,407-389-6025,28.662044,-81.389777,POINT (-81.389777 28.662044),12/6/2024 0:00,TRUE,,,FALSE,FALSE,FALSE,TRUE,TRUE,TRUE,FALSE,TRUE,TRUE,FALSE,FALSE,TRUE,TRUE,FALSE,FALSE,FALSE,FALSE,CV1,TRUE,TRUE
DURHAM PHARMACY,44984 HIGHWAY 17,,VERNON,AL,35592,,33.761856,-88.107858,POINT (-88.107858 33.761856),12/6/2024 0:00,TRUE,,,FALSE,FALSE,FALSE,FALSE,FALSE,FALSE,FALSE,FALSE,FALSE,FALSE,FALSE,FALSE,FALSE,FALSE,FALSE,FALSE,FALSE,ALA,FALSE,TRUE
PUBLIX PHARMACY #1029,3060 NE 41ST TERRACE,,HOMESTEAD,FL,33033,,25.49817,-80.414547,POINT (-80.414547 25.49817),12/6/2024 0:00,TRUE,,,FALSE,FALSE,FALSE,FALSE,FALSE,FALSE,FALSE,FALSE,FALSE,FALSE,FALSE,FALSE,FALSE,FALSE,FALSE,FALSE,FALSE,PX1,FALSE,TRUE
PUBLIX PHARMACY #1111,2755 SW 91ST STREET,,GAINESVILLE,FL,32607,,29.629281,-82.436366,POINT (-82.436366 29.629281),12/6/2024 0:00,TRUE,,,FALSE,FALSE,FALSE,FALSE,FALSE,FALSE,FALSE,FALSE,FALSE,FALSE,FALSE,FALSE,FALSE,FALSE,FALSE,FALSE,FALSE,PX1,FALSE,TRUE
OSSI'S APOTHECARY,9852 BAYMEADOWS RD,,JACKSONVILLE,FL,32256-7962,,30.21897,-81.55549,POINT (-81.55549 30.21897),12/6/2024 0:00,TRUE,,,FALSE,FALSE,FALSE,FALSE,FALSE,FALSE,FALSE,FALSE,FALSE,FALSE,FALSE,FALSE,FALSE,FALSE,FALSE,FALSE,FALSE,,FALSE,TRUE
CVS PHARMACY #17089,3700 BRADFORDVILLE RD,,TALLAHASSEE,FL,32309,850-894-3239,30.561,-84.215015,POINT (-84.215015 30.561),12/6/2024 0:00,TRUE,,,FALSE,FALSE,FALSE,TRUE,TRUE,TRUE,FALSE,TRUE,TRUE,FALSE,FALSE,TRUE,TRUE,FALSE,FALSE,FALSE,FALSE,CV1,TRUE,TRUE
CVS PHARMACY #17132,1544 N DALE MABRY HWY,,TAMPA,FL,33607,813-262-0245,27.95674,-82.50861,POINT (-82.50861 27.95674),12/6/2024 0:00,TRUE,,,FALSE,FALSE,FALSE,TRUE,TRUE,TRUE,FALSE,FALSE,FALSE,FALSE,FALSE,TRUE,TRUE,FALSE,FALSE,FALSE,FALSE,CV1,TRUE,TRUE
WALMART PHARMACY 10-5455,1040 MALABAR ROAD S.E.,,PALM BAY,FL,32907,,27.999007,-80.701601,POINT (-80.701601 27.999007),12/6/2024 0:00,TRUE,,,FALSE,FALSE,FALSE,FALSE,FALSE,FALSE,FALSE,FALSE,FALSE,FALSE,FALSE,FALSE,FALSE,FALSE,FALSE,FALSE,FALSE,WM1,FALSE,TRUE
WALGREENS #1902,6680 THOMASVILLE RD,,TALLAHASSEE,FL,32312-3836,,30.561188,-84.218486,POINT (-84.218486 30.561188),12/6/2024 0:00,TRUE,,,FALSE,FALSE,FALSE,FALSE,FALSE,FALSE,FALSE,FALSE,FALSE,FALSE,FALSE,FALSE,FALSE,FALSE,FALSE,FALSE,FALSE,WG1,FALSE,TRUE
WALGREENS #9556,13905 OLD ST AUGUSTINE RD,,JACKSONVILLE,FL,32258-5486,,30.142633,-81.546529,POINT (-81.546529 30.142633),12/6/2024 0:00,TRUE,,,FALSE,FALSE,FALSE,FALSE,FALSE,FALSE,FALSE,FALSE,FALSE,FALSE,FALSE,FALSE,FALSE,FALSE,FALSE,FALSE,FALSE,WG1,FALSE,TRUE
PRESIDENT PHARMACY AND DISCOUNT INC,11340 QUAIL ROOST DR,,MIAMI,FL,33157,,25.592515,-80.37658,POINT (-80.37658 25.592515),12/6/2024 0:00,TRUE,,,FALSE,FALSE,FALSE,FALSE,FALSE,FALSE,FALSE,FALSE,FALSE,FALSE,FALSE,FALSE,FALSE,FALSE,FALSE,FALSE,FALSE,,FALSE,TRUE
CVS PHARMACY #05901,7001 OLD WINTER GARDEN ROAD,,ORLANDO,FL,32835,407-253-2917,28.539761,-81.476575,POINT (-81.476575 28.539761),12/6/2024 0:00,TRUE,,,FALSE,FALSE,FALSE,TRUE,TRUE,TRUE,FALSE,TRUE,TRUE,FALSE,FALSE,TRUE,TRUE,FALSE,FALSE,FALSE,FALSE,CV1,TRUE,TRUE
CVS PHARMACY #05924,8765 S DIXIE HWY,,PINECREST,FL,33156-1111,305-740-6840,25.689325,-80.3071,POINT (-80.3071 25.689325),12/6/2024 0:00,TRUE,,,FALSE,FALSE,FALSE,TRUE,TRUE,TRUE,FALSE,TRUE,TRUE,FALSE,FALSE,TRUE,TRUE,FALSE,TRUE,FALSE,FALSE,CV1,TRUE,TRUE
MEDIC PHARMACY & SURGICAL,5150 N FEDERAL HWY,STE REAR,FT LAUDERDALE,FL,33308,,26.191954,-80.113226,POINT (-80.113226 26.191954),12/6/2024 0:00,TRUE,,,FALSE,FALSE,FALSE,FALSE,FALSE,FALSE,FALSE,FALSE,FALSE,FALSE,FALSE,FALSE,FALSE,FALSE,FALSE,FALSE,FALSE,FLA,FALSE,TRUE
WALGREENS #1077,3550 FRUITVILLE RD,,SARASOTA,FL,34237-9026,,27.336907,-82.498253,POINT (-82.498253 27.336907),12/6/2024 0:00,TRUE,,,FALSE,FALSE,FALSE,FALSE,FALSE,FALSE,FALSE,FALSE,FALSE,FALSE,FALSE,FALSE,FALSE,FALSE,FALSE,FALSE,FALSE,WG1,FALSE,TRUE
WALMART PHARMACY 10-3235,1425 NORTHEAST 163RD STREET,,NORTH MIAMI BEACH,FL,33162,,25.928116,-80.172187,POINT (-80.172187 25.928116),12/6/2024 0:00,TRUE,,,FALSE,FALSE,FALSE,FALSE,FALSE,FALSE,FALSE,FALSE,FALSE,FALSE,FALSE,FALSE,FALSE,FALSE,FALSE,FALSE,FALSE,WM1,FALSE,TRUE
WALGREENS #9304,3455 SW ARCHER RD,,GAINESVILLE,FL,32608-2408,,29.624557,-82.374164,POINT (-82.374164 29.624557),12/6/2024 0:00,TRUE,,,FALSE,FALSE,FALSE,FALSE,FALSE,FALSE,FALSE,FALSE,FALSE,FALSE,FALSE,FALSE,FALSE,FALSE,FALSE,FALSE,FALSE,WG1,FALSE,TRUE
PUBLIX PHARMACY #1038,5200 SW 34TH STREET,,GAINESVILLE,FL,32608,,29.60502,-82.372755,POINT (-82.372755 29.60502),12/6/2024 0:00,TRUE,,,FALSE,FALSE,FALSE,FALSE,FALSE,FALSE,FALSE,FALSE,FALSE,FALSE,FALSE,FALSE,FALSE,FALSE,FALSE,FALSE,FALSE,PX1,FALSE,TRUE
WALMART PHARMACY 10-5264,13140 SOUTH TAMIAMI TRAIL,,OSPREY,FL,34229,,27.193217,-82.48638,POINT (-82.48638 27.193217),12/6/2024 0:00,TRUE,,,FALSE,FALSE,FALSE,FALSE,FALSE,FALSE,FALSE,FALSE,FALSE,FALSE,FALSE,FALSE,FALSE,FALSE,FALSE,FALSE,FALSE,WM1,FALSE,TRUE
CHEEK AND SCOTT DRUGS INC,1520 OHIO AVE SOUTH,,LIVE OAK,FL,32064,,30.28246,-82.988232,POINT (-82.988232 30.28246),12/6/2024 0:00,TRUE,,,FALSE,FALSE,FALSE,FALSE,FALSE,FALSE,FALSE,FALSE,FALSE,FALSE,FALSE,FALSE,FALSE,FALSE,FALSE,FALSE,FALSE,MS1,FALSE,TRUE
PUBLIX PHARMACY #1032,13154 US HIGHWAY 301 SOUTH,,RIVERVIEW,FL,33569,,27.793693,-82.333159,POINT (-82.333159 27.793693),12/6/2024 0:00,TRUE,,,FALSE,FALSE,FALSE,FALSE,FALSE,FALSE,FALSE,FALSE,FALSE,FALSE,FALSE,FALSE,FALSE,FALSE,FALSE,FALSE,FALSE,PX1,FALSE,TRUE
WALGREENS #7694,16900 E COLONIAL DR,,ORLANDO,FL,32820-1911,,28.5738305,-81.2635085,POINT (-81.2635085 28.5738305),12/6/2024 0:00,TRUE,,,FALSE,FALSE,FALSE,FALSE,FALSE,FALSE,FALSE,FALSE,FALSE,FALSE,FALSE,FALSE,FALSE,FALSE,FALSE,FALSE,FALSE,WG1,FALSE,TRUE
PARAMORES PHARMACY INC,4314 5TH AVENUE,,MARIANNA,FL,32446,,30.787254,-85.236282,POINT (-85.236282 30.787254),12/6/2024 0:00,TRUE,,,FALSE,FALSE,FALSE,FALSE,FALSE,FALSE,FALSE,FALSE,FALSE,FALSE,FALSE,FALSE,FALSE,FALSE,FALSE,FALSE,FALSE,MS1,FALSE,TRUE
WALGREENS #9026,105 JULINGTON PLAZA DR,,JACKSONVILLE,FL,32259-6218,,30.115569,-81.593218,POINT (-81.593218 30.115569),12/6/2024 0:00,TRUE,,,FALSE,FALSE,FALSE,FALSE,FALSE,FALSE,FALSE,FALSE,FALSE,FALSE,FALSE,FALSE,FALSE,FALSE,FALSE,FALSE,FALSE,WG1,FALSE,TRUE
CVS PHARMACY #05929,10004 MCNAB ROAD,,TAMARAC,FL,33321,,26.207773,-80.285373,POINT (-80.285373 26.207773),12/6/2024 0:00,TRUE,,,FALSE,FALSE,FALSE,FALSE,FALSE,FALSE,FALSE,FALSE,FALSE,FALSE,FALSE,FALSE,FALSE,FALSE,FALSE,FALSE,FALSE,CV1,FALSE,TRUE
GILCHRIST PHARMACY INC,404 SPARKMAN ST NW,,HARTSELLE,AL,35640,,34.446271,-86.935505,POINT (-86.935505 34.446271),12/6/2024 0:00,TRUE,,,FALSE,FALSE,FALSE,FALSE,FALSE,FALSE,FALSE,FALSE,FALSE,FALSE,FALSE,FALSE,FALSE,FALSE,FALSE,FALSE,FALSE,,FALSE,TRUE
WALGREENS #7827,7610 4TH ST N,,ST PETERSBURG,FL,33702,,27.84205,-82.639212,POINT (-82.639212 27.84205),12/6/2024 0:00,TRUE,,,FALSE,FALSE,FALSE,FALSE,FALSE,FALSE,FALSE,FALSE,FALSE,FALSE,FALSE,FALSE,FALSE,FALSE,FALSE,FALSE,FALSE,WG1,FALSE,TRUE
PUBLIX PHARMACY #1037,7749 NORMANDY BLVD,,JACKSONVILLE,FL,32221,,30.296867,-81.775638,POINT (-81.775638 30.296867),12/6/2024 0:00,TRUE,,,FALSE,FALSE,FALSE,FALSE,FALSE,FALSE,FALSE,FALSE,FALSE,FALSE,FALSE,FALSE,FALSE,FALSE,FALSE,FALSE,FALSE,PX1,FALSE,TRUE
"JORGE'S PHARMACY, INC",1701 CORAL WAY,,MIAMI,FL,33145-2728,,25.751108,-80.222104,POINT (-80.222104 25.751108),12/6/2024 0:00,TRUE,,,FALSE,FALSE,FALSE,FALSE,FALSE,FALSE,FALSE,FALSE,FALSE,FALSE,FALSE,FALSE,FALSE,FALSE,FALSE,FALSE,FALSE,FLA,FALSE,TRUE
THE PRESCRIPTION PLACE,1337 US HWY 90 W,,DEFUNIAK SPRINGS,FL,32433,,30.730775,-86.139803,POINT (-86.139803 30.730775),12/6/2024 0:00,TRUE,,,FALSE,FALSE,FALSE,FALSE,FALSE,FALSE,FALSE,FALSE,FALSE,FALSE,FALSE,FALSE,FALSE,FALSE,FALSE,FALSE,FALSE,MS1,FALSE,TRUE
WALMART PHARMACY 10-2695,1450 JOHNS LAKE ROAD,,CLERMONT,FL,34711,,28.529899,-81.731242,POINT (-81.731242 28.529899),12/6/2024 0:00,TRUE,,,FALSE,FALSE,FALSE,FALSE,FALSE,FALSE,FALSE,FALSE,FALSE,FALSE,FALSE,FALSE,FALSE,FALSE,FALSE,FALSE,FALSE,WM1,FALSE,TRUE
WALGREENS #1724,4899 NW BLITCHTON,,OCALA,FL,34482-8743,,29.215179,-82.201085,POINT (-82.201085 29.215179),12/6/2024 0:00,TRUE,,,FALSE,FALSE,FALSE,FALSE,FALSE,FALSE,FALSE,FALSE,FALSE,FALSE,FALSE,FALSE,FALSE,FALSE,FALSE,FALSE,FALSE,WG1,FALSE,TRUE
WALGREENS #9361,3090 NE 43RD AVE,,HOMESTEAD,FL,33033-3028,,25.498812,-80.412895,POINT (-80.412895 25.498812),12/6/2024 0:00,TRUE,,,FALSE,FALSE,FALSE,FALSE,FALSE,FALSE,FALSE,FALSE,FALSE,FALSE,FALSE,FALSE,FALSE,FALSE,FALSE,FALSE,FALSE,WG1,FALSE,TRUE
NAVARRO DISCOUNT PHARMACY #10713,11402 NW 41 ST,,DORAL,FL,33178,,25.812224,-80.381892,POINT (-80.381892 25.812224),12/6/2024 0:00,TRUE,,,FALSE,FALSE,FALSE,FALSE,FALSE,FALSE,FALSE,FALSE,FALSE,FALSE,FALSE,FALSE,FALSE,FALSE,FALSE,FALSE,FALSE,CV1,FALSE,TRUE
AHF PHARMACY,1701 N MILLS AVE,,ORLANDO,FL,32803,,28.56697,-81.364265,POINT (-81.364265 28.56697),12/6/2024 0:00,TRUE,,,FALSE,FALSE,FALSE,FALSE,FALSE,FALSE,FALSE,FALSE,FALSE,FALSE,FALSE,FALSE,FALSE,FALSE,FALSE,FALSE,FALSE,MS1,FALSE,TRUE
CITRUS PHARMACY,4175 W 20TH AVE,,HIALEAH,FL,33012,,25.859734,-80.321653,POINT (-80.321653 25.859734),12/6/2024 0:00,TRUE,,,FALSE,FALSE,FALSE,FALSE,FALSE,FALSE,FALSE,FALSE,FALSE,FALSE,FALSE,FALSE,FALSE,FALSE,FALSE,FALSE,FALSE,HR2,FALSE,TRUE
PUBLIX PHARMACY #1030,10400 SW VILLAGE CENTER DRIVE,,PORT ST LUCIE,FL,34987,,27.268245,-80.431216,POINT (-80.431216 27.268245),12/6/2024 0:00,TRUE,,,FALSE,FALSE,FALSE,FALSE,FALSE,FALSE,FALSE,FALSE,FALSE,FALSE,FALSE,FALSE,FALSE,FALSE,FALSE,FALSE,FALSE,PX1,FALSE,TRUE
UNIVERSITY PAIN MANAGEMENT CENTER PHARMACY,3220 COVE BEND DRIVE,,TAMPA,FL,33613,,28.081307,-82.421838,POINT (-82.421838 28.081307),12/6/2024 0:00,TRUE,,,FALSE,FALSE,FALSE,FALSE,FALSE,FALSE,FALSE,FALSE,FALSE,FALSE,FALSE,FALSE,FALSE,FALSE,FALSE,FALSE,FALSE,,FALSE,TRUE
PRESCRIPTION DRUG FOUNDATION,1777 NE 163RD ST,,NORTH MIAMI BEACH,FL,33162-4017,,25.926346,-80.164625,POINT (-80.164625 25.926346),12/6/2024 0:00,TRUE,,,FALSE,FALSE,FALSE,FALSE,FALSE,FALSE,FALSE,FALSE,FALSE,FALSE,FALSE,FALSE,FALSE,FALSE,FALSE,FALSE,FALSE,FLA,FALSE,TRUE
SPECIALTY RX PFL,33 BRENT LANE,UNIT 101,PENSACOLA,FL,32503,,30.46629,-87.23897,POINT (-87.23897 30.46629),12/6/2024 0:00,TRUE,,,FALSE,FALSE,FALSE,FALSE,FALSE,FALSE,FALSE,FALSE,FALSE,FALSE,FALSE,FALSE,FALSE,FALSE,FALSE,FALSE,FALSE,,FALSE,TRUE
CVS PHARMACY #07921,4801 NEW BROAD ST,,ORLANDO,FL,32814,407-894-5263,28.566894,-81.32797,POINT (-81.32797 28.566894),12/6/2024 0:00,TRUE,,,FALSE,FALSE,FALSE,TRUE,TRUE,TRUE,FALSE,TRUE,TRUE,FALSE,FALSE,TRUE,TRUE,FALSE,FALSE,FALSE,FALSE,CV1,TRUE,TRUE
INDIAN RIVER HEMATOLOGY & ONCOLOGY,1460 36TH ST,,VERO BEACH,FL,32960,,27.658931,-80.399389,POINT (-80.399389 27.658931),12/6/2024 0:00,TRUE,,,FALSE,FALSE,FALSE,FALSE,FALSE,FALSE,FALSE,FALSE,FALSE,FALSE,FALSE,FALSE,FALSE,FALSE,FALSE,FALSE,FALSE,,FALSE,TRUE
BITTINGS PHARMACY AND MEDICAL EQUIPMENT AND SUPPLIES,619 SE 17 ST,,OCALA,FL,34471,,29.17218,-82.13093,POINT (-82.13093 29.17218),12/6/2024 0:00,TRUE,,,FALSE,FALSE,FALSE,FALSE,FALSE,FALSE,FALSE,FALSE,FALSE,FALSE,FALSE,FALSE,FALSE,FALSE,FALSE,FALSE,FALSE,,FALSE,TRUE
CORTEZ DRUGS,12116 CORTEZ BLVD,,BROOKSVILLE,FL,34613,,28.532164,-82.526639,POINT (-82.526639 28.532164),12/6/2024 0:00,TRUE,,,FALSE,FALSE,FALSE,FALSE,FALSE,FALSE,FALSE,FALSE,FALSE,FALSE,FALSE,FALSE,FALSE,FALSE,FALSE,FALSE,FALSE,,FALSE,TRUE
WALGREENS #9003,4473 WESTON RD,,WESTON,FL,33331,,26.068747,-80.363162,POINT (-80.363162 26.068747),12/6/2024 0:00,TRUE,,,FALSE,FALSE,FALSE,FALSE,FALSE,FALSE,FALSE,FALSE,FALSE,FALSE,FALSE,FALSE,FALSE,FALSE,FALSE,FALSE,FALSE,WG1,FALSE,TRUE
TARPON DISCOUNT DRUGS,701 S PINELLAS AVE,,TARPON SPRINGS,FL,34689,,28.140339,-82.756367,POINT (-82.756367 28.140339),12/6/2024 0:00,TRUE,,,FALSE,FALSE,FALSE,FALSE,FALSE,FALSE,FALSE,FALSE,FALSE,FALSE,FALSE,FALSE,FALSE,FALSE,FALSE,FALSE,FALSE,,FALSE,TRUE
SOUTH FLORIDA STATE HOSPITAL,800 E CYPRESS DR,,PEMBROKE PINES,FL,33025,,25.99552,-80.24896,POINT (-80.24896 25.99552),12/6/2024 0:00,TRUE,,,FALSE,FALSE,FALSE,FALSE,FALSE,FALSE,FALSE,FALSE,FALSE,FALSE,FALSE,FALSE,FALSE,FALSE,FALSE,FALSE,FALSE,,FALSE,TRUE
YAMATO PHARMACY,9101 LAKE RIDGE BLVD,STE 10,BOCA RATON,FL,33496,,26.394599,-80.191333,POINT (-80.191333 26.394599),12/6/2024 0:00,TRUE,,,FALSE,FALSE,FALSE,FALSE,FALSE,FALSE,FALSE,FALSE,FALSE,FALSE,FALSE,FALSE,FALSE,FALSE,FALSE,FALSE,FALSE,FLA,FALSE,TRUE
WALMART PHARMACY 10-3370,508 10TH STREET EAST,,PALMETTO,FL,34221,,27.523773,-82.559178,POINT (-82.559178 27.523773),12/6/2024 0:00,TRUE,,,FALSE,FALSE,FALSE,FALSE,FALSE,FALSE,FALSE,FALSE,FALSE,FALSE,FALSE,FALSE,FALSE,FALSE,FALSE,FALSE,FALSE,WM1,FALSE,TRUE
WALMART PHARMACY 10-3702,13227 CITY SQUARE DRIVE,,JACKSONVILLE,FL,32218,,30.477426,-81.638694,POINT (-81.638694 30.477426),12/6/2024 0:00,TRUE,,,FALSE,FALSE,FALSE,FALSE,FALSE,FALSE,FALSE,FALSE,FALSE,FALSE,FALSE,FALSE,FALSE,FALSE,FALSE,FALSE,FALSE,WM1,FALSE,TRUE
LEESBURG COMMUNITY PHARMACY,2500 CITRUS BLVD,,LEESBURG,FL,34748,,28.844009,-81.895639,POINT (-81.895639 28.844009),12/6/2024 0:00,TRUE,,,FALSE,FALSE,FALSE,FALSE,FALSE,FALSE,FALSE,FALSE,FALSE,FALSE,FALSE,FALSE,FALSE,FALSE,FALSE,FALSE,FALSE,,FALSE,TRUE
WALMART PHARMACY 10-3307,35 MIKE STEWART DRIVE,,CRAWFORDVILLE,FL,32327,,30.217723,-84.36086,POINT (-84.36086 30.217723),12/6/2024 0:00,TRUE,,,FALSE,FALSE,FALSE,FALSE,FALSE,FALSE,FALSE,FALSE,FALSE,FALSE,FALSE,FALSE,FALSE,FALSE,FALSE,FALSE,FALSE,WM1,FALSE,TRUE
WALMART PHARMACY 10-3387,17000 TAMIAMI TRAIL,,NORTH PORT,FL,34287,,27.034731,-82.21795,POINT (-82.21795 27.034731),12/6/2024 0:00,TRUE,,,FALSE,FALSE,FALSE,FALSE,FALSE,FALSE,FALSE,FALSE,FALSE,FALSE,FALSE,FALSE,FALSE,FALSE,FALSE,FALSE,FALSE,WM1,FALSE,TRUE
NORTHCUTT DRUG COMPANY INC,1774 W MAIN ST,,DOTHAN,AL,36301,,31.228259,-85.415885,POINT (-85.415885 31.228259),12/6/2024 0:00,TRUE,,,FALSE,FALSE,FALSE,FALSE,FALSE,FALSE,FALSE,FALSE,FALSE,FALSE,FALSE,FALSE,FALSE,FALSE,FALSE,FALSE,FALSE,,FALSE,TRUE
WALGREENS #9384,10420 FOREST HILL BLVD,,WELLINGTON,FL,33414-3172,,26.650534,-80.210368,POINT (-80.210368 26.650534),12/6/2024 0:00,TRUE,,,FALSE,FALSE,FALSE,FALSE,FALSE,FALSE,FALSE,FALSE,FALSE,FALSE,FALSE,FALSE,FALSE,FALSE,FALSE,FALSE,FALSE,WG1,FALSE,TRUE
WALGREENS #9787,2227 N YOUNG BLVD,,CHEIFLAND,FL,32626-1957,,29.503297,-82.871078,POINT (-82.871078 29.503297),12/6/2024 0:00,TRUE,,,FALSE,FALSE,FALSE,FALSE,FALSE,FALSE,FALSE,FALSE,FALSE,FALSE,FALSE,FALSE,FALSE,FALSE,FALSE,FALSE,FALSE,WG1,FALSE,TRUE
CVS PHARMACY #07937,8700 US HWY 301 N,,PARRISH,FL,34219,,27.543799,-82.477088,POINT (-82.477088 27.543799),12/6/2024 0:00,TRUE,,,FALSE,FALSE,FALSE,FALSE,FALSE,FALSE,FALSE,FALSE,FALSE,FALSE,FALSE,FALSE,FALSE,FALSE,FALSE,FALSE,FALSE,CV1,FALSE,TRUE
PARK PHARMACY,700 SE OCEAN BLVD,,STUART,FL,34994,,27.197499,-80.241206,POINT (-80.241206 27.197499),12/6/2024 0:00,TRUE,,,FALSE,FALSE,FALSE,FALSE,FALSE,FALSE,FALSE,FALSE,FALSE,FALSE,FALSE,FALSE,FALSE,FALSE,FALSE,FALSE,FALSE,,FALSE,TRUE
WALMART PHARMACY 10-3311,19501 NORTHWEST 27TH AVE.,,MIAMI GARDENS,FL,33056,,25.952777,-80.243755,POINT (-80.243755 25.952777),12/6/2024 0:00,TRUE,,,FALSE,FALSE,FALSE,FALSE,FALSE,FALSE,FALSE,FALSE,FALSE,FALSE,FALSE,FALSE,FALSE,FALSE,FALSE,FALSE,FALSE,WM1,FALSE,TRUE
WALMART PHARMACY 10-3348,101 NORTH CONGRESS AVE,,LAKE PARK,FL,33403,,26.795173,-80.088336,POINT (-80.088336 26.795173),12/6/2024 0:00,TRUE,,,FALSE,FALSE,FALSE,FALSE,FALSE,FALSE,FALSE,FALSE,FALSE,FALSE,FALSE,FALSE,FALSE,FALSE,FALSE,FALSE,FALSE,WM1,FALSE,TRUE
"CENTERWELL PHARMACY, INC.",4800 LINTON BLVD,STE E311,DELRAY BEACH,FL,33445,,26.437591,-80.11992,POINT (-80.11992 26.437591),12/6/2024 0:00,TRUE,,,FALSE,FALSE,FALSE,FALSE,FALSE,FALSE,FALSE,FALSE,FALSE,FALSE,FALSE,FALSE,FALSE,FALSE,FALSE,FALSE,FALSE,FLA,FALSE,TRUE
WALGREENS #9847,4020 N LECANTO HWY,,BEVERLY HILLS,FL,34465-3518,,28.9227,-82.466105,POINT (-82.466105 28.9227),12/6/2024 0:00,TRUE,,,FALSE,FALSE,FALSE,FALSE,FALSE,FALSE,FALSE,FALSE,FALSE,FALSE,FALSE,FALSE,FALSE,FALSE,FALSE,FALSE,FALSE,WG1,FALSE,TRUE
HEDGES HEALTHMART PHARMACY,24 NORTH LIME AVE,,SARASOTA,FL,34237-6120,,27.336777,-82.52397,POINT (-82.52397 27.336777),12/6/2024 0:00,TRUE,,,FALSE,FALSE,FALSE,FALSE,FALSE,FALSE,FALSE,FALSE,FALSE,FALSE,FALSE,FALSE,FALSE,FALSE,FALSE,FALSE,FALSE,FLA,FALSE,TRUE
WALGREENS #9619,301 N TYNDALL PKWY,,CALLAWAY,FL,32404-6124,,30.153442,-85.591923,POINT (-85.591923 30.153442),12/6/2024 0:00,TRUE,,,FALSE,FALSE,FALSE,FALSE,FALSE,FALSE,FALSE,FALSE,FALSE,FALSE,FALSE,FALSE,FALSE,FALSE,FALSE,FALSE,FALSE,WG1,FALSE,TRUE
MRH PRIMARY CARE CENTER PHARMACY,4105 PEMBROKE RD,,HOLLYWOOD,FL,33021,,25.996001,-80.185179,POINT (-80.185179 25.996001),12/6/2024 0:00,TRUE,,,FALSE,FALSE,FALSE,FALSE,FALSE,FALSE,FALSE,FALSE,FALSE,FALSE,FALSE,FALSE,FALSE,FALSE,FALSE,FALSE,FALSE,FLA,FALSE,TRUE
NATURE COAST PHARMACY INC,4662 COMMERCIAL WY,,SPRING HILL,FL,34606,,28.495261,-82.593631,POINT (-82.593631 28.495261),12/6/2024 0:00,TRUE,,,FALSE,FALSE,FALSE,FALSE,FALSE,FALSE,FALSE,FALSE,FALSE,FALSE,FALSE,FALSE,FALSE,FALSE,FALSE,FALSE,FALSE,,FALSE,TRUE
CVS PHARMACY #17127,101 N CATTLEMEN RD,,SARASOTA,FL,34243,941-360-7521,27.386793,-82.458509,POINT (-82.458509 27.386793),12/6/2024 0:00,TRUE,,,FALSE,FALSE,FALSE,TRUE,TRUE,TRUE,FALSE,FALSE,FALSE,FALSE,FALSE,TRUE,TRUE,FALSE,FALSE,FALSE,FALSE,CV1,TRUE,TRUE
CVS PHARMACY #17153,5900 STATE RD 7,,LAKE WORTH,FL,33449,561-273-8260,26.592764,-80.202369,POINT (-80.202369 26.592764),12/6/2024 0:00,TRUE,,,FALSE,FALSE,FALSE,TRUE,TRUE,TRUE,FALSE,TRUE,TRUE,FALSE,FALSE,TRUE,TRUE,FALSE,FALSE,FALSE,FALSE,CV1,TRUE,TRUE
CVS PHARMACY #08396,1929 BRUCE B DOWNS BLVD,,WESLEY CHAPEL,FL,33543,,28.185064,-82.354529,POINT (-82.354529 28.185064),12/6/2024 0:00,TRUE,,,FALSE,FALSE,FALSE,FALSE,FALSE,FALSE,FALSE,FALSE,FALSE,FALSE,FALSE,FALSE,FALSE,FALSE,FALSE,FALSE,FALSE,CV1,FALSE,TRUE
WALGREENS #9509,395 E CYPRESS PKWY,,KISSIMMEE,FL,34759-3326,,28.346669,-81.415475,POINT (-81.415475 28.346669),12/6/2024 0:00,TRUE,,,FALSE,FALSE,FALSE,FALSE,FALSE,FALSE,FALSE,FALSE,FALSE,FALSE,FALSE,FALSE,FALSE,FALSE,FALSE,FALSE,FALSE,WG1,FALSE,TRUE
PUBLIX PHARMACY #1062,15771 SW 152ND ST,,MIAMI,FL,33157,,25.626496,-80.448419,POINT (-80.448419 25.626496),12/6/2024 0:00,TRUE,,,FALSE,FALSE,FALSE,FALSE,FALSE,FALSE,FALSE,FALSE,FALSE,FALSE,FALSE,FALSE,FALSE,FALSE,FALSE,FALSE,FALSE,PX1,FALSE,TRUE
CVS PHARMACY #05912,1891 LPGA BLVD,,DAYTONA BEACH,FL,32117,386-274-1490,29.226519,-81.085568,POINT (-81.085568 29.226519),12/6/2024 0:00,TRUE,,,FALSE,FALSE,FALSE,TRUE,TRUE,TRUE,FALSE,TRUE,TRUE,FALSE,FALSE,TRUE,TRUE,FALSE,FALSE,FALSE,FALSE,CV1,TRUE,TRUE
CVS PHARMACY #05823,5310 45TH STREET EAST,,BRADENTON,FL,34203,941-751-4472,27.445356,-82.506087,POINT (-82.506087 27.445356),12/6/2024 0:00,TRUE,,,FALSE,FALSE,FALSE,TRUE,TRUE,TRUE,FALSE,TRUE,TRUE,FALSE,FALSE,TRUE,TRUE,FALSE,FALSE,FALSE,FALSE,CV1,TRUE,TRUE
PUBLIX PHARMACY #1036,1405 S FEDERAL HWY,,POMPANO BEACH,FL,33062,,26.212767,-80.107773,POINT (-80.107773 26.212767),12/6/2024 0:00,TRUE,,,FALSE,FALSE,FALSE,FALSE,FALSE,FALSE,FALSE,FALSE,FALSE,FALSE,FALSE,FALSE,FALSE,FALSE,FALSE,FALSE,FALSE,PX1,FALSE,TRUE
AHF PHARMACY,2097 WILTON DR,,WILTON MANORS,FL,33305,,26.154158,-80.140424,POINT (-80.140424 26.154158),12/6/2024 0:00,TRUE,,,FALSE,FALSE,FALSE,FALSE,FALSE,FALSE,FALSE,FALSE,FALSE,FALSE,FALSE,FALSE,FALSE,FALSE,FALSE,FALSE,FALSE,MS1,FALSE,TRUE
FRIENDLY DRUG & SURGICAL,7 BARRY RD,,WEST PARK,FL,33023-5271,,25.984106,-80.205058,POINT (-80.205058 25.984106),12/6/2024 0:00,TRUE,,,FALSE,FALSE,FALSE,FALSE,FALSE,FALSE,FALSE,FALSE,FALSE,FALSE,FALSE,FALSE,FALSE,FALSE,FALSE,FALSE,FALSE,,FALSE,TRUE
PUBLIX PHARMACY #1115,950 BLANDING BLVD,,ORANGE PARK,FL,32065,,30.138812,-81.774969,POINT (-81.774969 30.138812),12/6/2024 0:00,TRUE,,,FALSE,FALSE,FALSE,FALSE,FALSE,FALSE,FALSE,FALSE,FALSE,FALSE,FALSE,FALSE,FALSE,FALSE,FALSE,FALSE,FALSE,PX1,FALSE,TRUE
PHARMCORX,400 ANSIN BLVD,STE A,HALLANDALE BEACH,FL,33009,,25.989868,-80.164706,POINT (-80.164706 25.989868),12/6/2024 0:00,TRUE,,,FALSE,FALSE,FALSE,FALSE,FALSE,FALSE,FALSE,FALSE,FALSE,FALSE,FALSE,FALSE,FALSE,FALSE,FALSE,FALSE,FALSE,FLA,FALSE,TRUE
NORTH FLORIDA PHARMACY OF KEYSTONE HEIGHTS,405 S LAWRENCE BLVD,,KEYSTONE HEIGHTS,FL,32656,,29.782408,-82.030465,POINT (-82.030465 29.782408),12/6/2024 0:00,TRUE,,,FALSE,FALSE,FALSE,FALSE,FALSE,FALSE,FALSE,FALSE,FALSE,FALSE,FALSE,FALSE,FALSE,FALSE,FALSE,FALSE,FALSE,MS1,FALSE,TRUE
ORLANDO HEALTH SCRIPTS,1400 S ORANGE AVE,MP 138,ORLANDO,FL,32806,,28.525067,-81.377055,POINT (-81.377055 28.525067),12/6/2024 0:00,TRUE,,,FALSE,FALSE,FALSE,FALSE,FALSE,FALSE,FALSE,FALSE,FALSE,FALSE,FALSE,FALSE,FALSE,FALSE,FALSE,FALSE,FALSE,FLA,FALSE,TRUE
PUBLIX PHARMACY #1123,605 COURTLAND BLVD,,DELTONA,FL,32738,,28.879568,-81.177344,POINT (-81.177344 28.879568),12/6/2024 0:00,TRUE,,,FALSE,FALSE,FALSE,FALSE,FALSE,FALSE,FALSE,FALSE,FALSE,FALSE,FALSE,FALSE,FALSE,FALSE,FALSE,FALSE,FALSE,PX1,FALSE,TRUE
WALGREENS #10181,2237 W NINE MILE RD,,PENSACOLA,FL,32534-9416,,30.531995,-87.27432521,POINT (-87.27432521 30.531995),12/6/2024 0:00,TRUE,,,FALSE,FALSE,FALSE,FALSE,FALSE,FALSE,FALSE,FALSE,FALSE,FALSE,FALSE,FALSE,FALSE,FALSE,FALSE,FALSE,FALSE,WG1,FALSE,TRUE
CURANT HEALTH FLORIDA LLC,11001 ROOSEVELT BLVD N STE 1400,,ST PETERSBURG,FL,33716-2338,,27.87328,-82.650052,POINT (-82.650052 27.87328),12/6/2024 0:00,TRUE,,,FALSE,FALSE,FALSE,FALSE,FALSE,FALSE,FALSE,FALSE,FALSE,FALSE,FALSE,FALSE,FALSE,FALSE,FALSE,FALSE,FALSE,,FALSE,TRUE
AMERICANA DISCOUNT PHARMACY,370-B S STATE ROAD 7,,HOLLYWOOD,FL,33023,,25.977603,-80.205885,POINT (-80.205885 25.977603),12/6/2024 0:00,TRUE,,,FALSE,FALSE,FALSE,FALSE,FALSE,FALSE,FALSE,FALSE,FALSE,FALSE,FALSE,FALSE,FALSE,FALSE,FALSE,FALSE,FALSE,,FALSE,TRUE
CAMP DRUGS LLC,18294 BROAD ST,,HENAGAR,AL,35978,,34.619983,-85.758742,POINT (-85.758742 34.619983),12/6/2024 0:00,TRUE,,,FALSE,FALSE,FALSE,FALSE,FALSE,FALSE,FALSE,FALSE,FALSE,FALSE,FALSE,FALSE,FALSE,FALSE,FALSE,FALSE,FALSE,ALA,FALSE,TRUE
CVS PHARMACY #03150,221 S STATE RD 434,,ALTAMONTE SPRINGS,FL,32714,407-862-3013,28.659518,-81.418385,POINT (-81.418385 28.659518),12/6/2024 0:00,TRUE,,,FALSE,FALSE,FALSE,TRUE,TRUE,TRUE,FALSE,TRUE,TRUE,FALSE,FALSE,TRUE,TRUE,FALSE,FALSE,FALSE,FALSE,CV1,TRUE,TRUE
THE MEDICINE SHOPPE OF NEW SMYRNA BEACH,1141 N DIXIE FWY,,NEW SMYRNA BEACH,FL,32168-6405,,29.043221,-80.933601,POINT (-80.933601 29.043221),12/6/2024 0:00,TRUE,,,FALSE,FALSE,FALSE,FALSE,FALSE,FALSE,FALSE,FALSE,FALSE,FALSE,FALSE,FALSE,FALSE,FALSE,FALSE,FALSE,FALSE,,FALSE,TRUE
WALMART PHARMACY 10-3310,101 HOWLAND BLVD,,DELTONA,FL,32738,,28.869454,-81.164951,POINT (-81.164951 28.869454),12/6/2024 0:00,TRUE,,,FALSE,FALSE,FALSE,FALSE,FALSE,FALSE,FALSE,FALSE,FALSE,FALSE,FALSE,FALSE,FALSE,FALSE,FALSE,FALSE,FALSE,WM1,FALSE,TRUE
MEDICAL PLAZA PHARMACY,201 NW 82ND AVE,STE 101,PLANTATION,FL,33324,,26.124859,-80.25933,POINT (-80.25933 26.124859),12/6/2024 0:00,TRUE,,,FALSE,FALSE,FALSE,FALSE,FALSE,FALSE,FALSE,FALSE,FALSE,FALSE,FALSE,FALSE,FALSE,FALSE,FALSE,FALSE,FALSE,FLA,FALSE,TRUE
COSTCO PHARMACY #623,11001 SOUTHERN BLVD,,ROYAL PALM BEACH,FL,33411-4240,,26.682618,-80.219858,POINT (-80.219858 26.682618),12/6/2024 0:00,TRUE,,,FALSE,FALSE,FALSE,FALSE,FALSE,FALSE,FALSE,FALSE,FALSE,FALSE,FALSE,FALSE,FALSE,FALSE,FALSE,FALSE,FALSE,CW1,FALSE,TRUE
SAMS PHARMACY 10-4794,3530 LAKELAND HIGHLANDS RD,,LAKELAND,FL,33803-4313,,27.999352,-81.922551,POINT (-81.922551 27.999352),12/6/2024 0:00,TRUE,,,FALSE,FALSE,FALSE,FALSE,FALSE,FALSE,FALSE,FALSE,FALSE,FALSE,FALSE,FALSE,FALSE,FALSE,FALSE,FALSE,FALSE,WM1,FALSE,TRUE
WALGREENS #10469,103 S ORANGE AVE,,GREEN COVE SPRINGS,FL,32043-4127,,29.992303,-81.679597,POINT (-81.679597 29.992303),12/6/2024 0:00,TRUE,,,FALSE,FALSE,FALSE,FALSE,FALSE,FALSE,FALSE,FALSE,FALSE,FALSE,FALSE,FALSE,FALSE,FALSE,FALSE,FALSE,FALSE,WG1,FALSE,TRUE
WALGREENS #10717,140 CAPITAL CIR SW,,TALLAHASSEE,FL,32304-3563,,30.441747,-84.226453,POINT (-84.226453 30.441747),12/6/2024 0:00,TRUE,,,FALSE,FALSE,FALSE,FALSE,FALSE,FALSE,FALSE,FALSE,FALSE,FALSE,FALSE,FALSE,FALSE,FALSE,FALSE,FALSE,FALSE,WG1,FALSE,TRUE
"ACARIAHEALTH PHARMACY #26, INC.",8715 HENDERSON RD,,TAMPA,FL,33634-1143,,27.968677,-82.459391,POINT (-82.459391 27.968677),12/6/2024 0:00,TRUE,,,FALSE,FALSE,FALSE,FALSE,FALSE,FALSE,FALSE,FALSE,FALSE,FALSE,FALSE,FALSE,FALSE,FALSE,FALSE,FALSE,FALSE,,FALSE,TRUE
CVS PHARMACY #03130,5 S US HWY 27,,LAKE PLACID,FL,33852,863-465-4810,27.21264,-81.33134,POINT (-81.33134 27.21264),12/6/2024 0:00,TRUE,,,FALSE,FALSE,FALSE,TRUE,TRUE,TRUE,FALSE,FALSE,FALSE,FALSE,FALSE,TRUE,TRUE,FALSE,FALSE,FALSE,FALSE,CV1,TRUE,TRUE
EAST HILL PHARMACY,2899 N 12TH AVE,,PENSACOLA,FL,32503,,30.443436,-87.207412,POINT (-87.207412 30.443436),12/6/2024 0:00,TRUE,,,FALSE,FALSE,FALSE,FALSE,FALSE,FALSE,FALSE,FALSE,FALSE,FALSE,FALSE,FALSE,FALSE,FALSE,FALSE,FALSE,FALSE,,FALSE,TRUE
WALGREENS #16354,1780 N UNIVERSITY DR,,PLANTATION,FL,33322-4107,,26.147922,-80.256293,POINT (-80.256293 26.147922),12/6/2024 0:00,TRUE,,,FALSE,FALSE,FALSE,FALSE,FALSE,FALSE,FALSE,FALSE,FALSE,FALSE,FALSE,FALSE,FALSE,FALSE,FALSE,FALSE,FALSE,WG1,FALSE,TRUE
CVS PHARMACY #01812,20019 CORTEZ BLVD,,BROOKSVILLE,FL,34601,352-796-7261,28.539521,-82.403181,POINT (-82.403181 28.539521),12/6/2024 0:00,TRUE,,,FALSE,FALSE,FALSE,TRUE,TRUE,TRUE,FALSE,TRUE,TRUE,FALSE,FALSE,TRUE,TRUE,FALSE,FALSE,FALSE,FALSE,CV1,TRUE,TRUE
CVS PHARMACY #03106,1625 FOURAKER RD,,JACKSONVILLE,FL,32221,904-781-0738,30.292149,-81.780916,POINT (-81.780916 30.292149),12/6/2024 0:00,TRUE,,,FALSE,FALSE,FALSE,TRUE,TRUE,TRUE,FALSE,TRUE,TRUE,FALSE,FALSE,TRUE,TRUE,FALSE,FALSE,FALSE,FALSE,CV1,TRUE,TRUE
HARBIN DISCOUNT PHARMACY,521 RICHARD ARRINGTON BLVD SO,,BIRMINGHAM,AL,35233,,33.48118,-86.81646,POINT (-86.81646 33.48118),12/6/2024 0:00,TRUE,,,FALSE,FALSE,FALSE,FALSE,FALSE,FALSE,FALSE,FALSE,FALSE,FALSE,FALSE,FALSE,FALSE,FALSE,FALSE,FALSE,FALSE,,FALSE,TRUE
UF HEALTH PHARMACY - SHANDS HOSPITAL,1600 SW ARCHER RD RM 1190,,GAINESVILLE,FL,32610-0316,,29.64162,-82.34324,POINT (-82.34324 29.64162),12/6/2024 0:00,TRUE,,,FALSE,FALSE,FALSE,FALSE,FALSE,FALSE,FALSE,FALSE,FALSE,FALSE,FALSE,FALSE,FALSE,FALSE,FALSE,FALSE,FALSE,,FALSE,TRUE
"GUARDIAN PHARMACY OF DAYTONA, LLC",10 AVIATOR WAY,,ORMOND BEACH,FL,32174-2983,,29.291373,-81.117703,POINT (-81.117703 29.291373),12/6/2024 0:00,TRUE,,,FALSE,FALSE,FALSE,FALSE,FALSE,FALSE,FALSE,FALSE,FALSE,FALSE,FALSE,FALSE,FALSE,FALSE,FALSE,FALSE,FALSE,MH1,FALSE,TRUE
AB SPECIALTY PHARMACY,2311 SEVEN SPRINGS BLVD,,NEW PORT RICHEY,FL,34655,,28.192767,-82.699622,POINT (-82.699622 28.192767),12/6/2024 0:00,TRUE,,,FALSE,FALSE,FALSE,FALSE,FALSE,FALSE,FALSE,FALSE,FALSE,FALSE,FALSE,FALSE,FALSE,FALSE,FALSE,FALSE,FALSE,,FALSE,TRUE
CVS PHARMACY #17323,10720 SW VILLAGE PKWY,,PORT ST LUCIE,FL,34987,772-293-6153,27.269864,-80.426409,POINT (-80.426409 27.269864),12/6/2024 0:00,TRUE,,,FALSE,FALSE,FALSE,TRUE,TRUE,TRUE,FALSE,TRUE,TRUE,FALSE,FALSE,TRUE,TRUE,FALSE,FALSE,FALSE,FALSE,CV1,TRUE,TRUE
CVS PHARMACY #17343,3055 COLUMBIA BLVD,,TITUSVILLE,FL,32780,321-360-1087,28.551773,-80.840824,POINT (-80.840824 28.551773),12/6/2024 0:00,TRUE,,,FALSE,FALSE,FALSE,TRUE,TRUE,TRUE,FALSE,TRUE,TRUE,FALSE,FALSE,TRUE,TRUE,FALSE,FALSE,FALSE,FALSE,CV1,TRUE,TRUE
CVS PHARMACY #03217,11938 US HWY 19 NORTH,,PORT RICHEY,FL,34668,727-868-9408,28.330846,-82.698541,POINT (-82.698541 28.330846),12/6/2024 0:00,TRUE,,,FALSE,FALSE,FALSE,TRUE,TRUE,TRUE,FALSE,TRUE,TRUE,FALSE,FALSE,TRUE,TRUE,FALSE,FALSE,FALSE,FALSE,CV1,TRUE,TRUE
CHOICE PHARMACY INC,5913 N ARMENIA AVE,,TAMPA,FL,33603-1002,,28.001113,-82.484044,POINT (-82.484044 28.001113),12/6/2024 0:00,TRUE,,,FALSE,FALSE,FALSE,FALSE,FALSE,FALSE,FALSE,FALSE,FALSE,FALSE,FALSE,FALSE,FALSE,FALSE,FALSE,FALSE,FALSE,GN1,FALSE,TRUE
BRASHEARS PHARMACY,471 N DACIE PT,,LECANTO,FL,34461,,28.869859,-82.488868,POINT (-82.488868 28.869859),12/6/2024 0:00,TRUE,,,FALSE,FALSE,FALSE,FALSE,FALSE,FALSE,FALSE,FALSE,FALSE,FALSE,FALSE,FALSE,FALSE,FALSE,FALSE,FALSE,FALSE,FLA,FALSE,TRUE
SPECIALTY PHARMACY,2104 ALABAMA HWY 157,,CULLMAN,AL,35058,,34.199394,-86.808516,POINT (-86.808516 34.199394),12/6/2024 0:00,TRUE,,,FALSE,FALSE,FALSE,FALSE,FALSE,FALSE,FALSE,FALSE,FALSE,FALSE,FALSE,FALSE,FALSE,FALSE,FALSE,FALSE,FALSE,ALA,FALSE,TRUE
CVS PHARMACY #03171,602 W MAIN ST,,INVERNESS,FL,34450,352-726-9030,28.836529,-82.337106,POINT (-82.337106 28.836529),12/6/2024 0:00,TRUE,,,FALSE,FALSE,FALSE,TRUE,TRUE,TRUE,FALSE,TRUE,TRUE,FALSE,FALSE,TRUE,TRUE,TRUE,FALSE,FALSE,FALSE,CV1,TRUE,TRUE
WALGREENS #10179,6370 BAYSHORE RD,,NORTH FORT MYERS,FL,33917-3137,,26.697662,-81.851273,POINT (-81.851273 26.697662),12/6/2024 0:00,TRUE,,,FALSE,FALSE,FALSE,FALSE,FALSE,FALSE,FALSE,FALSE,FALSE,FALSE,FALSE,FALSE,FALSE,FALSE,FALSE,FALSE,FALSE,WG1,FALSE,TRUE
PUBLIX PHARMACY #1104,926 S MILITARY TRAIL,,WEST PALM BEACH,FL,33415,,26.664389,-80.11056,POINT (-80.11056 26.664389),12/6/2024 0:00,TRUE,,,FALSE,FALSE,FALSE,FALSE,FALSE,FALSE,FALSE,FALSE,FALSE,FALSE,FALSE,FALSE,FALSE,FALSE,FALSE,FALSE,FALSE,PX1,FALSE,TRUE
CVS PHARMACY #03226,5044 FOREST HILL BLVD,,WEST PALM BEACH,FL,33415,561-967-9118,26.651247,-80.121288,POINT (-80.121288 26.651247),12/6/2024 0:00,TRUE,,,FALSE,FALSE,FALSE,TRUE,TRUE,TRUE,FALSE,TRUE,TRUE,FALSE,FALSE,TRUE,TRUE,FALSE,FALSE,FALSE,FALSE,CV1,TRUE,TRUE
WALGREENS #9627,12041 PALM BEACH BLVD,,FT MYERS,FL,33905-4807,,26.68447,-81.79206267,POINT (-81.79206267 26.68447),12/6/2024 0:00,TRUE,,,FALSE,FALSE,FALSE,FALSE,FALSE,FALSE,FALSE,FALSE,FALSE,FALSE,FALSE,FALSE,FALSE,FALSE,FALSE,FALSE,FALSE,WG1,FALSE,TRUE
CVS PHARMACY #00476,2454 E IRLO BRONSON MEMORIAL HWY,,KISSIMMEE,FL,34744,407-343-8358,28.279325,-81.345128,POINT (-81.345128 28.279325),12/6/2024 0:00,TRUE,,,FALSE,FALSE,FALSE,TRUE,TRUE,TRUE,FALSE,TRUE,TRUE,FALSE,FALSE,TRUE,TRUE,FALSE,FALSE,FALSE,FALSE,CV1,TRUE,TRUE
CVS PHARMACY #17360,11627 W HILLSBOROUGH AVE,,TAMPA,FL,33635,813-749-5962,28.016278,-82.61273,POINT (-82.61273 28.016278),12/6/2024 0:00,TRUE,,,FALSE,FALSE,FALSE,TRUE,TRUE,TRUE,FALSE,FALSE,FALSE,FALSE,FALSE,TRUE,TRUE,FALSE,FALSE,FALSE,FALSE,CV1,TRUE,TRUE
"CENTERWELL PHARMACY, INC.",18623 SOUTH DIXIE HWY,,MIAMI,FL,33157,,25.594463,-80.355361,POINT (-80.355361 25.594463),12/6/2024 0:00,TRUE,,,FALSE,FALSE,FALSE,FALSE,FALSE,FALSE,FALSE,FALSE,FALSE,FALSE,FALSE,FALSE,FALSE,FALSE,FALSE,FALSE,FALSE,FLA,FALSE,TRUE
WALGREENS #10470,16795 S DIXIE HWY,,MIAMI,FL,33157-3441,,25.955291,-80.148518,POINT (-80.148518 25.955291),12/6/2024 0:00,TRUE,,,FALSE,FALSE,FALSE,FALSE,FALSE,FALSE,FALSE,FALSE,FALSE,FALSE,FALSE,FALSE,FALSE,FALSE,FALSE,FALSE,FALSE,WG1,FALSE,TRUE
WALGREENS #10356,13680 N KENDALL DR,,MIAMI,FL,33186-1567,,25.684731,-80.415932,POINT (-80.415932 25.684731),12/6/2024 0:00,TRUE,,,FALSE,FALSE,FALSE,FALSE,FALSE,FALSE,FALSE,FALSE,FALSE,FALSE,FALSE,FALSE,FALSE,FALSE,FALSE,FALSE,FALSE,WG1,FALSE,TRUE
NORTH FLORIDA PHARMACY OF MADISON,139 SW MACON STREET,,MADISON,FL,32340,,30.465771,-83.410705,POINT (-83.410705 30.465771),12/6/2024 0:00,TRUE,,,FALSE,FALSE,FALSE,FALSE,FALSE,FALSE,FALSE,FALSE,FALSE,FALSE,FALSE,FALSE,FALSE,FALSE,FALSE,FALSE,FALSE,,FALSE,TRUE
NORTHEAST FLORIDA STATE HOSP,7487 SOUTH SR 121,,MACCLENNY,FL,32063,,30.21509,-82.15211,POINT (-82.15211 30.21509),12/6/2024 0:00,TRUE,,,FALSE,FALSE,FALSE,FALSE,FALSE,FALSE,FALSE,FALSE,FALSE,FALSE,FALSE,FALSE,FALSE,FALSE,FALSE,FALSE,FALSE,,FALSE,TRUE
UFHLH OUTPATIENT PHARMACY,600 E DIXIE AVE,,LEESBURG,FL,34748-5999,,28.807763,-81.86835,POINT (-81.86835 28.807763),12/6/2024 0:00,TRUE,,,FALSE,FALSE,FALSE,FALSE,FALSE,FALSE,FALSE,FALSE,FALSE,FALSE,FALSE,FALSE,FALSE,FALSE,FALSE,FALSE,FALSE,,FALSE,TRUE
"LAKEVIEW CENTER, INC.",1201 W HERNANDEZ ST,,PENSACOLA,FL,32501-1899,,30.431487,-87.233118,POINT (-87.233118 30.431487),12/6/2024 0:00,TRUE,,,FALSE,FALSE,FALSE,FALSE,FALSE,FALSE,FALSE,FALSE,FALSE,FALSE,FALSE,FALSE,FALSE,FALSE,FALSE,FALSE,FALSE,,FALSE,TRUE
LEE DRUG STORE INC,18530 FLORIDA ST,,ROBERTSDALE,AL,36567,,30.551691,-87.707582,POINT (-87.707582 30.551691),12/6/2024 0:00,TRUE,,,FALSE,FALSE,FALSE,FALSE,FALSE,FALSE,FALSE,FALSE,FALSE,FALSE,FALSE,FALSE,FALSE,FALSE,FALSE,FALSE,FALSE,ALA,FALSE,TRUE
NAVARRO DISCOUNT PHARMACY #10716,2399 W 52ND ST,,HIALEAH,FL,33016,305-424-9144,25.870501,-80.330757,POINT (-80.330757 25.870501),12/6/2024 0:00,TRUE,,,FALSE,FALSE,FALSE,TRUE,TRUE,TRUE,FALSE,TRUE,TRUE,FALSE,FALSE,TRUE,TRUE,FALSE,FALSE,FALSE,FALSE,CV1,TRUE,TRUE
NAVARRO DISCOUNT PHARMACY #10715,11865 A SW 26TH ST,,MIAMI,FL,33175-2441,,25.7436,-80.24095,POINT (-80.24095 25.7436),12/6/2024 0:00,TRUE,,,FALSE,FALSE,FALSE,FALSE,FALSE,FALSE,FALSE,FALSE,FALSE,FALSE,FALSE,FALSE,FALSE,FALSE,FALSE,FALSE,FALSE,CV1,FALSE,TRUE
NAVARRO DISCOUNT PHARMACY #10722,366 EAST 4TH AVE,,HIALEAH,FL,33010,305-749-5353,25.825148,-80.274055,POINT (-80.274055 25.825148),12/6/2024 0:00,TRUE,,,FALSE,FALSE,FALSE,TRUE,TRUE,TRUE,FALSE,TRUE,TRUE,FALSE,FALSE,TRUE,TRUE,FALSE,FALSE,FALSE,FALSE,CV1,TRUE,TRUE
NAVARRO DISCOUNT PHARMACY #10721,9686 SW 24TH ST,,MIAMI,FL,33165-8098,305-424-9026,25.7487565,-80.28768325,POINT (-80.28768325 25.7487565),12/6/2024 0:00,TRUE,,,FALSE,FALSE,FALSE,TRUE,TRUE,TRUE,FALSE,FALSE,FALSE,FALSE,FALSE,TRUE,TRUE,FALSE,FALSE,FALSE,FALSE,CV1,TRUE,TRUE
NAVARRO DISCOUNT PHARMACY #10718,6410 NW 186TH ST,,HIALEAH,FL,33015-6006,,25.941086,-80.305705,POINT (-80.305705 25.941086),12/6/2024 0:00,TRUE,,,FALSE,FALSE,FALSE,FALSE,FALSE,FALSE,FALSE,FALSE,FALSE,FALSE,FALSE,FALSE,FALSE,FALSE,FALSE,FALSE,FALSE,CV1,FALSE,TRUE
NAVARRO DISCOUNT PHARMACY #10719,3915 PALM AVE,,HIALEAH,FL,33012-4447,305-821-9518,25.857936,-80.282175,POINT (-80.282175 25.857936),12/6/2024 0:00,TRUE,,,FALSE,FALSE,FALSE,TRUE,TRUE,TRUE,FALSE,TRUE,TRUE,FALSE,FALSE,TRUE,TRUE,FALSE,FALSE,FALSE,FALSE,CV1,TRUE,TRUE
NAVARRO DISCOUNT PHARMACY #10720,13796 SW 152ND ST,,MIAMI,FL,33177-1105,305-235-4368,25.625729,-80.416908,POINT (-80.416908 25.625729),12/6/2024 0:00,TRUE,,,FALSE,FALSE,FALSE,TRUE,TRUE,TRUE,FALSE,TRUE,TRUE,FALSE,FALSE,TRUE,TRUE,FALSE,FALSE,FALSE,FALSE,CV1,TRUE,TRUE
WALGREENS #10830,201 N HIATUS RD,,PEMBROKE PINES,FL,33026,,26.009929,-80.295678,POINT (-80.295678 26.009929),12/6/2024 0:00,TRUE,,,FALSE,FALSE,FALSE,FALSE,FALSE,FALSE,FALSE,FALSE,FALSE,FALSE,FALSE,FALSE,FALSE,FALSE,FALSE,FALSE,FALSE,WG1,FALSE,TRUE
HOSPITAL DISCOUNT PHARMACY CENTRAL,209 4TH AVE NE,,CULLMAN,AL,35055-1993,,34.180564,-86.8412,POINT (-86.8412 34.180564),12/6/2024 0:00,TRUE,,,FALSE,FALSE,FALSE,FALSE,FALSE,FALSE,FALSE,FALSE,FALSE,FALSE,FALSE,FALSE,FALSE,FALSE,FALSE,FALSE,FALSE,,FALSE,TRUE
SANDLAKE PHARMACY,7300 SAND LAKE COMMONS BLVD,STE 225,ORLANDO,FL,32819,,28.430294,-81.479347,POINT (-81.479347 28.430294),12/6/2024 0:00,TRUE,,,FALSE,FALSE,FALSE,FALSE,FALSE,FALSE,FALSE,FALSE,FALSE,FALSE,FALSE,FALSE,FALSE,FALSE,FALSE,FALSE,FALSE,,FALSE,TRUE
PROFESSIONAL PHARMACY SERVICES AND MEDICAL EQUIPMENT,10993 SW 186 ST,,MIAMI,FL,33157,,25.59582167,-80.36182233,POINT (-80.36182233 25.59582167),12/6/2024 0:00,TRUE,,,FALSE,FALSE,FALSE,FALSE,FALSE,FALSE,FALSE,FALSE,FALSE,FALSE,FALSE,FALSE,FALSE,FALSE,FALSE,FALSE,FALSE,,FALSE,TRUE
WALMART PHARMACY 10-5321,9131 COLLEGE PKWY,,FORT MYERS,FL,33919-5818,,26.554793,-81.908162,POINT (-81.908162 26.554793),12/6/2024 0:00,TRUE,,,FALSE,FALSE,FALSE,FALSE,FALSE,FALSE,FALSE,FALSE,FALSE,FALSE,FALSE,FALSE,FALSE,FALSE,FALSE,FALSE,FALSE,WM1,FALSE,TRUE
PUBLIX PHARMACY #1177,7117 MERRILL RD,,JACKSONVILLE,FL,32277,,30.353592,-81.579037,POINT (-81.579037 30.353592),12/6/2024 0:00,TRUE,,,FALSE,FALSE,FALSE,FALSE,FALSE,FALSE,FALSE,FALSE,FALSE,FALSE,FALSE,FALSE,FALSE,FALSE,FALSE,FALSE,FALSE,PX1,FALSE,TRUE
WALGREENS #10556,5903 S ORANGE BLOSSOM TRAIL,,ORLANDO,FL,32809-4605,,28.4856,-81.39283345,POINT (-81.39283345 28.4856),12/6/2024 0:00,TRUE,,,FALSE,FALSE,FALSE,FALSE,FALSE,FALSE,FALSE,FALSE,FALSE,FALSE,FALSE,FALSE,FALSE,FALSE,FALSE,FALSE,FALSE,WG1,FALSE,TRUE
CVS PHARMACY #17275,5601 NW 183RD ST,,MIAMI GARDENS,FL,33055,305-760-7009,25.940291,-80.290682,POINT (-80.290682 25.940291),12/6/2024 0:00,TRUE,,,FALSE,FALSE,FALSE,TRUE,TRUE,TRUE,FALSE,TRUE,TRUE,FALSE,FALSE,TRUE,TRUE,FALSE,FALSE,FALSE,FALSE,CV1,TRUE,TRUE
1ST CHOICE PHARMACY,2228 US HIGHWAY 19,,HOLIDAY,FL,34691,,28.191083,-82.739081,POINT (-82.739081 28.191083),12/6/2024 0:00,TRUE,,,FALSE,FALSE,FALSE,FALSE,FALSE,FALSE,FALSE,FALSE,FALSE,FALSE,FALSE,FALSE,FALSE,FALSE,FALSE,FALSE,FALSE,,FALSE,TRUE
CVS PHARMACY #03237,106 N PARROTT AVE,,OKEECHOBEE,FL,34972,863-763-3169,27.24416,-80.829387,POINT (-80.829387 27.24416),12/6/2024 0:00,TRUE,,,FALSE,FALSE,FALSE,TRUE,TRUE,TRUE,FALSE,TRUE,TRUE,FALSE,FALSE,TRUE,TRUE,FALSE,FALSE,FALSE,FALSE,CV1,TRUE,TRUE
CVS PHARMACY #03198,175 STATE ROAD 312,,ST AUGUSTINE,FL,32086,904-824-6167,29.865964,-81.326203,POINT (-81.326203 29.865964),12/6/2024 0:00,TRUE,,,FALSE,FALSE,FALSE,TRUE,TRUE,TRUE,FALSE,TRUE,TRUE,FALSE,FALSE,TRUE,TRUE,FALSE,FALSE,FALSE,FALSE,CV1,TRUE,TRUE
WALMART PHARMACY 10-3782,5991 NEW GOLDENROD RD,,ORLANDO,FL,32822,,28.565789,-81.21765993,POINT (-81.21765993 28.565789),12/6/2024 0:00,TRUE,,,FALSE,FALSE,FALSE,FALSE,FALSE,FALSE,FALSE,FALSE,FALSE,FALSE,FALSE,FALSE,FALSE,FALSE,FALSE,FALSE,FALSE,WM1,FALSE,TRUE
WALMART PHARMACY 10-5266,12610 US HIGHWAY 19,,HUDSON,FL,34667,,28.340713,-82.698977,POINT (-82.698977 28.340713),12/6/2024 0:00,TRUE,,,FALSE,FALSE,FALSE,FALSE,FALSE,FALSE,FALSE,FALSE,FALSE,FALSE,FALSE,FALSE,FALSE,FALSE,FALSE,FALSE,FALSE,WM1,FALSE,TRUE
COSTCO PHARMACY #1026,4067 LAGINAPPE WAY,,TALLAHASSEE,FL,32317-1201,,30.4605,-84.212156,POINT (-84.212156 30.4605),12/6/2024 0:00,TRUE,,,FALSE,FALSE,FALSE,FALSE,FALSE,FALSE,FALSE,FALSE,FALSE,FALSE,FALSE,FALSE,FALSE,FALSE,FALSE,FALSE,FALSE,CW1,FALSE,TRUE
CVS PHARMACY #02030,301 S 6TH AVE,,WAUCHULA,FL,33873,863-767-1195,27.544769,-81.810483,POINT (-81.810483 27.544769),12/6/2024 0:00,TRUE,,,FALSE,FALSE,FALSE,TRUE,TRUE,TRUE,FALSE,TRUE,TRUE,FALSE,FALSE,TRUE,TRUE,FALSE,FALSE,FALSE,FALSE,CV1,TRUE,TRUE
PUBLIX PHARMACY #1193,9525 SOUTH SUNCOAST BLVD,,HOMOSASSA,FL,34446,,28.723324,-82.551143,POINT (-82.551143 28.723324),12/6/2024 0:00,TRUE,,,FALSE,FALSE,FALSE,FALSE,FALSE,FALSE,FALSE,FALSE,FALSE,FALSE,FALSE,FALSE,FALSE,FALSE,FALSE,FALSE,FALSE,PX1,FALSE,TRUE
CVS PHARMACY #01810,2811 CLARK RD,,SARASOTA,FL,34231,941-921-5781,27.2687035,-82.51386419,POINT (-82.51386419 27.2687035),12/6/2024 0:00,TRUE,,,FALSE,FALSE,FALSE,TRUE,TRUE,TRUE,FALSE,TRUE,TRUE,FALSE,FALSE,TRUE,TRUE,FALSE,FALSE,FALSE,FALSE,CV1,TRUE,TRUE
WALGREENS #10497,15 N HWY 17 92,,DEBARY,FL,32713,,28.89954,-81.30606,POINT (-81.30606 28.89954),12/6/2024 0:00,TRUE,,,FALSE,FALSE,FALSE,FALSE,FALSE,FALSE,FALSE,FALSE,FALSE,FALSE,FALSE,FALSE,FALSE,FALSE,FALSE,FALSE,FALSE,WG1,FALSE,TRUE
CVS PHARMACY #07133,10700 NW 74TH ST,,DORAL,FL,33178,305-594-5984,25.840113,-80.370789,POINT (-80.370789 25.840113),12/6/2024 0:00,TRUE,,,FALSE,FALSE,FALSE,TRUE,TRUE,TRUE,FALSE,TRUE,TRUE,FALSE,FALSE,TRUE,TRUE,FALSE,FALSE,FALSE,FALSE,CV1,TRUE,TRUE
CVS PHARMACY #00113,2780 NE 8TH ST,,HOMESTEAD,FL,33033-5699,305-245-4992,25.476761,-80.436743,POINT (-80.436743 25.476761),12/6/2024 0:00,TRUE,,,FALSE,FALSE,FALSE,TRUE,TRUE,TRUE,FALSE,TRUE,TRUE,FALSE,FALSE,TRUE,TRUE,FALSE,FALSE,FALSE,FALSE,CV1,TRUE,TRUE
CVS PHARMACY #03121,10660 SW 40TH ST,,MIAMI,FL,33165,,25.731745,-80.367225,POINT (-80.367225 25.731745),12/6/2024 0:00,TRUE,,,FALSE,FALSE,FALSE,FALSE,FALSE,FALSE,FALSE,FALSE,FALSE,FALSE,FALSE,FALSE,FALSE,FALSE,FALSE,FALSE,FALSE,CV1,FALSE,TRUE
LOS PALACIOS MEDICAL SUPPLIES & PHARMACY,4213 E 4TH AVE,,HIALEAH,FL,33013-2305,,25.860927,-80.274403,POINT (-80.274403 25.860927),12/6/2024 0:00,TRUE,,,FALSE,FALSE,FALSE,FALSE,FALSE,FALSE,FALSE,FALSE,FALSE,FALSE,FALSE,FALSE,FALSE,FALSE,FALSE,FALSE,FALSE,,FALSE,TRUE
"EASYSCRIPTS, LLC",7235 NW 19 STREET BAY E,,MIAMI,FL,33126,,25.79022,-80.31606,POINT (-80.31606 25.79022),12/6/2024 0:00,TRUE,,,FALSE,FALSE,FALSE,FALSE,FALSE,FALSE,FALSE,FALSE,FALSE,FALSE,FALSE,FALSE,FALSE,FALSE,FALSE,FALSE,FALSE,,FALSE,TRUE
WALMART PHARMACY 10-4520,4021 LANGNIAPPE WAY,,TALLAHASSEE,FL,32317,,30.460675,-84.21723,POINT (-84.21723 30.460675),12/6/2024 0:00,TRUE,,,FALSE,FALSE,FALSE,FALSE,FALSE,FALSE,FALSE,FALSE,FALSE,FALSE,FALSE,FALSE,FALSE,FALSE,FALSE,FALSE,FALSE,WM1,FALSE,TRUE
CVS PHARMACY #03229,414 ATLANTIC BLVD,,NEPTUNE BEACH,FL,32266,904-241-2461,30.32407,-81.399772,POINT (-81.399772 30.32407),12/6/2024 0:00,TRUE,,,FALSE,FALSE,FALSE,TRUE,TRUE,TRUE,FALSE,TRUE,TRUE,FALSE,FALSE,TRUE,TRUE,FALSE,FALSE,FALSE,FALSE,CV1,TRUE,TRUE
CVS PHARMACY #03222,4511 LANTANA RD,,LAKE WORTH,FL,33463,561-965-6444,26.589279,-80.115012,POINT (-80.115012 26.589279),12/6/2024 0:00,TRUE,,,FALSE,FALSE,FALSE,TRUE,TRUE,TRUE,FALSE,TRUE,TRUE,FALSE,FALSE,TRUE,TRUE,FALSE,FALSE,FALSE,FALSE,CV1,TRUE,TRUE
WALMART PHARMACY 10-3877,1800 NE 12TH AVE,,GAINESVILLE,FL,32641,,29.66382,-82.301124,POINT (-82.301124 29.66382),12/6/2024 0:00,TRUE,,,FALSE,FALSE,FALSE,FALSE,FALSE,FALSE,FALSE,FALSE,FALSE,FALSE,FALSE,FALSE,FALSE,FALSE,FALSE,FALSE,FALSE,WM1,FALSE,TRUE
THE MEDICINE SHOPPE PHARMACY,1905 NORTH ANDREWS AVENUE,,WILTON MANORS,FL,33311,,26.152364,-80.146739,POINT (-80.146739 26.152364),12/6/2024 0:00,TRUE,,,FALSE,FALSE,FALSE,FALSE,FALSE,FALSE,FALSE,FALSE,FALSE,FALSE,FALSE,FALSE,FALSE,FALSE,FALSE,FALSE,FALSE,,FALSE,TRUE
WALGREENS #11486,260 MARION OAKS BLVD,,OCALA,FL,34473-2513,,29.006319,-82.17486,POINT (-82.17486 29.006319),12/6/2024 0:00,TRUE,,,FALSE,FALSE,FALSE,FALSE,FALSE,FALSE,FALSE,FALSE,FALSE,FALSE,FALSE,FALSE,FALSE,FALSE,FALSE,FALSE,FALSE,WG1,FALSE,TRUE
PUBLIX PHARMACY #0861,150 S FEDERAL HWY,,DEERFIELD,FL,33441,,26.348283,-80.086064,POINT (-80.086064 26.348283),12/6/2024 0:00,TRUE,,,FALSE,FALSE,FALSE,FALSE,FALSE,FALSE,FALSE,FALSE,FALSE,FALSE,FALSE,FALSE,FALSE,FALSE,FALSE,FALSE,FALSE,PX1,FALSE,TRUE
WALGREENS #11329,400 COLONY BLVD,,THE VILLAGES,FL,32162-6086,,28.865857,-81.957971,POINT (-81.957971 28.865857),12/6/2024 0:00,TRUE,,,FALSE,FALSE,FALSE,FALSE,FALSE,FALSE,FALSE,FALSE,FALSE,FALSE,FALSE,FALSE,FALSE,FALSE,FALSE,FALSE,FALSE,WG1,FALSE,TRUE
WALGREENS #11683,3769 PLEASANT HILL RD,,KISSIMMEE,FL,34746,,28.183682,-81.438855,POINT (-81.438855 28.183682),12/6/2024 0:00,TRUE,,,FALSE,FALSE,FALSE,FALSE,FALSE,FALSE,FALSE,FALSE,FALSE,FALSE,FALSE,FALSE,FALSE,FALSE,FALSE,FALSE,FALSE,WG1,FALSE,TRUE
WALMART PHARMACY 10-4560,6901 OKEECHOBEE BLVD,,WEST PALM BEACH,FL,33411,,26.710018,-80.150426,POINT (-80.150426 26.710018),12/6/2024 0:00,TRUE,,,FALSE,FALSE,FALSE,FALSE,FALSE,FALSE,FALSE,FALSE,FALSE,FALSE,FALSE,FALSE,FALSE,FALSE,FALSE,FALSE,FALSE,WM1,FALSE,TRUE
WALGREENS #4003,3015 S UNIVERSITY DR,,DAVIE,FL,33328-2013,,26.083115,-80.251635,POINT (-80.251635 26.083115),12/6/2024 0:00,TRUE,,,FALSE,FALSE,FALSE,FALSE,FALSE,FALSE,FALSE,FALSE,FALSE,FALSE,FALSE,FALSE,FALSE,FALSE,FALSE,FALSE,FALSE,WG1,FALSE,TRUE
FOODLAND DISCOUNT PHARMACY,313 E SAND MOUNTAIN DR,,ALBERTVILLE,AL,35950,,34.267594,-86.208867,POINT (-86.208867 34.267594),12/6/2024 0:00,TRUE,,,FALSE,FALSE,FALSE,FALSE,FALSE,FALSE,FALSE,FALSE,FALSE,FALSE,FALSE,FALSE,FALSE,FALSE,FALSE,FALSE,FALSE,ALA,FALSE,TRUE
WALGREENS #3829,8398 SHELDON ROAD,,TAMPA,FL,33615-1609,,28.02549,-82.583848,POINT (-82.583848 28.02549),12/6/2024 0:00,TRUE,,,FALSE,FALSE,FALSE,FALSE,FALSE,FALSE,FALSE,FALSE,FALSE,FALSE,FALSE,FALSE,FALSE,FALSE,FALSE,FALSE,FALSE,WG1,FALSE,TRUE
THE MEDICINE SHOPPE PHARMACY,3030 E SEMORAN BLVD,STE 164,APOPKA,FL,32703-5902,,28.670149,-81.453883,POINT (-81.453883 28.670149),12/6/2024 0:00,TRUE,,,FALSE,FALSE,FALSE,FALSE,FALSE,FALSE,FALSE,FALSE,FALSE,FALSE,FALSE,FALSE,FALSE,FALSE,FALSE,FALSE,FALSE,,FALSE,TRUE
WALGREENS #11245,14040 W NEWBERRY RD,,NEWBERRY,FL,32669,,29.654467,-82.49321,POINT (-82.49321 29.654467),12/6/2024 0:00,TRUE,,,FALSE,FALSE,FALSE,FALSE,FALSE,FALSE,FALSE,FALSE,FALSE,FALSE,FALSE,FALSE,FALSE,FALSE,FALSE,FALSE,FALSE,WG1,FALSE,TRUE
AHF PHARMACY,4300 BAYOU BLVD.,SUITE 17D,PENSACOLA,FL,32503,,30.466854,-87.203405,POINT (-87.203405 30.466854),12/6/2024 0:00,TRUE,,,FALSE,FALSE,FALSE,FALSE,FALSE,FALSE,FALSE,FALSE,FALSE,FALSE,FALSE,FALSE,FALSE,FALSE,FALSE,FALSE,FALSE,MS1,FALSE,TRUE
CVS PHARMACY #03269,4465 NORTHLAKE BLVD.,,PALM BEACH GARDENS,FL,33410,561-622-6803,26.809533,-80.105943,POINT (-80.105943 26.809533),12/6/2024 0:00,TRUE,,,FALSE,FALSE,FALSE,TRUE,TRUE,TRUE,FALSE,TRUE,TRUE,FALSE,FALSE,TRUE,TRUE,FALSE,FALSE,FALSE,FALSE,CV1,TRUE,TRUE
CVS PHARMACY #03287,850 W SAMPLE RD,,POMPANO BEACH,FL,33064,954-785-3250,26.274131,-80.135147,POINT (-80.135147 26.274131),12/6/2024 0:00,TRUE,,,FALSE,FALSE,FALSE,TRUE,TRUE,TRUE,FALSE,FALSE,FALSE,FALSE,FALSE,TRUE,TRUE,FALSE,FALSE,FALSE,FALSE,CV1,TRUE,TRUE
WALGREENS #13678,300 E NEW YORK AVE,,DELAND,FL,32724-5532,,29.027563,-81.298789,POINT (-81.298789 29.027563),12/6/2024 0:00,TRUE,,,FALSE,FALSE,FALSE,FALSE,FALSE,FALSE,FALSE,FALSE,FALSE,FALSE,FALSE,FALSE,FALSE,FALSE,FALSE,FALSE,FALSE,WG1,FALSE,TRUE
NAVARRO DISCOUNT PHARMACY #10696,5252 W. FLAGLER ST,,MIAMI,FL,33134,305-442-9946,25.770664,-80.281694,POINT (-80.281694 25.770664),12/6/2024 0:00,TRUE,,,FALSE,FALSE,FALSE,TRUE,TRUE,TRUE,FALSE,TRUE,TRUE,FALSE,FALSE,TRUE,TRUE,FALSE,FALSE,FALSE,FALSE,CV1,TRUE,TRUE
TOWERS PHARMACY,125 BAPTIST WAY STE 1F,,PENSACOLA,FL,32503,,30.469138,-87.229732,POINT (-87.229732 30.469138),12/6/2024 0:00,TRUE,,,FALSE,FALSE,FALSE,FALSE,FALSE,FALSE,FALSE,FALSE,FALSE,FALSE,FALSE,FALSE,FALSE,FALSE,FALSE,FALSE,FALSE,FLA,FALSE,TRUE
CVS PHARMACY #01350,2831 MAGUIRE RD,,WINDERMERE,FL,34786,407-654-0568,28.529263,-81.542601,POINT (-81.542601 28.529263),12/6/2024 0:00,TRUE,,,FALSE,FALSE,FALSE,TRUE,TRUE,TRUE,FALSE,TRUE,TRUE,FALSE,FALSE,TRUE,TRUE,FALSE,FALSE,FALSE,FALSE,CV1,TRUE,TRUE
WALGREENS #11485,2801 N PONCE DE LEON BLVD,,ST AUGUSTINE,FL,32084-1648,,29.91719,-81.32513,POINT (-81.32513 29.91719),12/6/2024 0:00,TRUE,,,FALSE,FALSE,FALSE,FALSE,FALSE,FALSE,FALSE,FALSE,FALSE,FALSE,FALSE,FALSE,FALSE,FALSE,FALSE,FALSE,FALSE,WG1,FALSE,TRUE
PUBLIX PHARMACY #1317,9251 UNIVERSITY PARKWAY,,PENSACOLA,FL,32514,,30.5298,-87.22261,POINT (-87.22261 30.5298),12/6/2024 0:00,TRUE,,,FALSE,FALSE,FALSE,FALSE,FALSE,FALSE,FALSE,FALSE,FALSE,FALSE,FALSE,FALSE,FALSE,FALSE,FALSE,FALSE,FALSE,PX1,FALSE,TRUE
PUBLIX PHARMACY #1339,4950 BELLE TERRE PARKWAY,,PALM COURT,FL,32137,,29.55149,-81.235629,POINT (-81.235629 29.55149),12/6/2024 0:00,TRUE,,,FALSE,FALSE,FALSE,FALSE,FALSE,FALSE,FALSE,FALSE,FALSE,FALSE,FALSE,FALSE,FALSE,FALSE,FALSE,FALSE,FALSE,PX1,FALSE,TRUE
PUBLIX PHARMACY #1301,10018 GRIFFIN ROAD,,COOPER CITY,FL,33328,,26.062974,-80.281575,POINT (-80.281575 26.062974),12/6/2024 0:00,TRUE,,,FALSE,FALSE,FALSE,FALSE,FALSE,FALSE,FALSE,FALSE,FALSE,FALSE,FALSE,FALSE,FALSE,FALSE,FALSE,FALSE,FALSE,PX1,FALSE,TRUE
PUBLIX PHARMACY #1456,3700 4TH STREET NORTH,,SAINT PETERSBURG,FL,33704,,27.805914,-82.639984,POINT (-82.639984 27.805914),12/6/2024 0:00,TRUE,,,FALSE,FALSE,FALSE,FALSE,FALSE,FALSE,FALSE,FALSE,FALSE,FALSE,FALSE,FALSE,FALSE,FALSE,FALSE,FALSE,FALSE,PX1,FALSE,TRUE
ACQUAVIVA'S PHARMACY,1555 PORT MALABAR BLVD NE,UNIT 101,PALM BAY,FL,32905,,28.019366,-80.604211,POINT (-80.604211 28.019366),12/6/2024 0:00,TRUE,,,FALSE,FALSE,FALSE,FALSE,FALSE,FALSE,FALSE,FALSE,FALSE,FALSE,FALSE,FALSE,FALSE,FALSE,FALSE,FALSE,FALSE,,FALSE,TRUE
PUBLIX PHARMACY #1194,3040 DYER BLVD.,,KISSIMMEE,FL,34741,,28.339202,-81.432423,POINT (-81.432423 28.339202),12/6/2024 0:00,TRUE,,,FALSE,FALSE,FALSE,FALSE,FALSE,FALSE,FALSE,FALSE,FALSE,FALSE,FALSE,FALSE,FALSE,FALSE,FALSE,FALSE,FALSE,PX1,FALSE,TRUE
WALGREENS #16526,8400 US HWY 19 N,,PORT RICHEY,FL,34668-6643,,28.433931,-82.639935,POINT (-82.639935 28.433931),12/6/2024 0:00,TRUE,,,FALSE,FALSE,FALSE,FALSE,FALSE,FALSE,FALSE,FALSE,FALSE,FALSE,FALSE,FALSE,FALSE,FALSE,FALSE,FALSE,FALSE,WG1,FALSE,TRUE
PUBLIX PHARMACY #1216,3372 CANOE CREEK RD.,,ST CLOUD,FL,34772,,28.19744,-81.29484,POINT (-81.29484 28.19744),12/6/2024 0:00,TRUE,,,FALSE,FALSE,FALSE,FALSE,FALSE,FALSE,FALSE,FALSE,FALSE,FALSE,FALSE,FALSE,FALSE,FALSE,FALSE,FALSE,FALSE,PX1,FALSE,TRUE
PUBLIX PHARMACY #1196,32765 EILAND  BLVD.,,ZEPHYRHILLS,FL,33545,,28.222006,-82.24849,POINT (-82.24849 28.222006),12/6/2024 0:00,TRUE,,,FALSE,FALSE,FALSE,FALSE,FALSE,FALSE,FALSE,FALSE,FALSE,FALSE,FALSE,FALSE,FALSE,FALSE,FALSE,FALSE,FALSE,PX1,FALSE,TRUE
BARCLAY PHARMACY,200 N TAMIAMI TRL,SUITE A,VENICE,FL,34285-1915,,27.098603,-82.444633,POINT (-82.444633 27.098603),12/6/2024 0:00,TRUE,,,FALSE,FALSE,FALSE,FALSE,FALSE,FALSE,FALSE,FALSE,FALSE,FALSE,FALSE,FALSE,FALSE,FALSE,FALSE,FALSE,FALSE,,FALSE,TRUE
USF BULLS COUNTRY PHARMACY,12530 USF BULL RUN DRIVE,SWC 310,TAMPA,FL,33620,,28.059327,-82.408003,POINT (-82.408003 28.059327),12/6/2024 0:00,TRUE,,,FALSE,FALSE,FALSE,FALSE,FALSE,FALSE,FALSE,FALSE,FALSE,FALSE,FALSE,FALSE,FALSE,FALSE,FALSE,FALSE,FALSE,,FALSE,TRUE
CVS PHARMACY #03271,1001 DUNLAWTON AVE,,PORT ORANGE,FL,32127,386-788-1500,29.127941,-81.006082,POINT (-81.006082 29.127941),12/6/2024 0:00,TRUE,,,FALSE,FALSE,FALSE,TRUE,TRUE,TRUE,FALSE,TRUE,TRUE,FALSE,FALSE,TRUE,TRUE,FALSE,FALSE,FALSE,FALSE,CV1,TRUE,TRUE
WALGREENS #3608,1705 US HIGHWAY 1,,VERO BEACH,FL,32960-5544,,27.633037,-80.390052,POINT (-80.390052 27.633037),12/6/2024 0:00,TRUE,,,FALSE,FALSE,FALSE,FALSE,FALSE,FALSE,FALSE,FALSE,FALSE,FALSE,FALSE,FALSE,FALSE,FALSE,FALSE,FALSE,FALSE,WG1,FALSE,TRUE
WALGREENS #4811,12807 US HWY 301,,DADE CITY,FL,33525-5812,,28.343618,-82.186786,POINT (-82.186786 28.343618),12/6/2024 0:00,TRUE,,,FALSE,FALSE,FALSE,FALSE,FALSE,FALSE,FALSE,FALSE,FALSE,FALSE,FALSE,FALSE,FALSE,FALSE,FALSE,FALSE,FALSE,WG1,FALSE,TRUE
CHEEK & SCOTT DRUGS INC,4785 WEST US HWY 90,,LAKE CITY,FL,32055,,30.185323,-82.710139,POINT (-82.710139 30.185323),12/6/2024 0:00,TRUE,,,FALSE,FALSE,FALSE,FALSE,FALSE,FALSE,FALSE,FALSE,FALSE,FALSE,FALSE,FALSE,FALSE,FALSE,FALSE,FALSE,FALSE,MS1,FALSE,TRUE
WALGREENS #10668,2575 NE HIGHWAY 70,,ARCADIA,FL,34266-8590,,27.208313,-81.833659,POINT (-81.833659 27.208313),12/6/2024 0:00,TRUE,,,FALSE,FALSE,FALSE,FALSE,FALSE,FALSE,FALSE,FALSE,FALSE,FALSE,FALSE,FALSE,FALSE,FALSE,FALSE,FALSE,FALSE,WG1,FALSE,TRUE
WALGREENS #3247,2075 US HWY 1 S,,ST AUGUSTINE,FL,32086-6000,,29.861859,-81.323706,POINT (-81.323706 29.861859),12/6/2024 0:00,TRUE,,,FALSE,FALSE,FALSE,FALSE,FALSE,FALSE,FALSE,FALSE,FALSE,FALSE,FALSE,FALSE,FALSE,FALSE,FALSE,FALSE,FALSE,WG1,FALSE,TRUE
WALGREENS #16297,9400 NW 12TH AVE,BAY 5,MIAMI,FL,33150-2024,,25.861294,-80.216326,POINT (-80.216326 25.861294),12/6/2024 0:00,TRUE,,,FALSE,FALSE,FALSE,FALSE,FALSE,FALSE,FALSE,FALSE,FALSE,FALSE,FALSE,FALSE,FALSE,FALSE,FALSE,FALSE,FALSE,WG1,FALSE,TRUE
CVS PHARMACY #03330,2300 N FLAMINGO RD,,PEMBROKE PINES,FL,33028,954-432-2391,26.02878,-80.313676,POINT (-80.313676 26.02878),12/6/2024 0:00,TRUE,,,FALSE,FALSE,FALSE,TRUE,TRUE,TRUE,FALSE,TRUE,TRUE,FALSE,FALSE,TRUE,TRUE,FALSE,FALSE,FALSE,FALSE,CV1,TRUE,TRUE
PUBLIX PHARMACY #1300,1921 N. BELCHER RD.,,CLEARWATER,FL,33763,,27.990623,-82.742814,POINT (-82.742814 27.990623),12/6/2024 0:00,TRUE,,,FALSE,FALSE,FALSE,FALSE,FALSE,FALSE,FALSE,FALSE,FALSE,FALSE,FALSE,FALSE,FALSE,FALSE,FALSE,FALSE,FALSE,PX1,FALSE,TRUE
PUBLIX PHARMACY #1259,3821 S. NOVA RD.,,PORT ORANGE,FL,32127-4950,,29.126841,-81.002369,POINT (-81.002369 29.126841),12/6/2024 0:00,TRUE,,,FALSE,FALSE,FALSE,FALSE,FALSE,FALSE,FALSE,FALSE,FALSE,FALSE,FALSE,FALSE,FALSE,FALSE,FALSE,FALSE,FALSE,PX1,FALSE,TRUE
PUBLIX PHARMACY #1340,35439 U.S. 19 NORTH,,PALM HARBOR,FL,34684-1737,,28.09433,-82.73832,POINT (-82.73832 28.09433),12/6/2024 0:00,TRUE,,,FALSE,FALSE,FALSE,FALSE,FALSE,FALSE,FALSE,FALSE,FALSE,FALSE,FALSE,FALSE,FALSE,FALSE,FALSE,FALSE,FALSE,PX1,FALSE,TRUE
PUBLIX PHARMACY #1303,610 NORTH EGLIN PARKWAY,,FORT WALTON BEACH,FL,32547,,30.441585,-86.600444,POINT (-86.600444 30.441585),12/6/2024 0:00,TRUE,,,FALSE,FALSE,FALSE,FALSE,FALSE,FALSE,FALSE,FALSE,FALSE,FALSE,FALSE,FALSE,FALSE,FALSE,FALSE,FALSE,FALSE,PX1,FALSE,TRUE
CVS PHARMACY #03274,9852 STRINGFELLOW RD,,ST JAMES CITY,FL,33956,239-283-1037,26.604699,-82.113428,POINT (-82.113428 26.604699),12/6/2024 0:00,TRUE,,,FALSE,FALSE,FALSE,TRUE,TRUE,TRUE,FALSE,TRUE,TRUE,FALSE,FALSE,TRUE,TRUE,FALSE,FALSE,FALSE,FALSE,CV1,TRUE,TRUE
H.E. FARMACIA INC,692 W 29TH ST,SUITE 1 & 2,HIALEAH,FL,33012,,25.84771,-80.296011,POINT (-80.296011 25.84771),12/6/2024 0:00,TRUE,,,FALSE,FALSE,FALSE,FALSE,FALSE,FALSE,FALSE,FALSE,FALSE,FALSE,FALSE,FALSE,FALSE,FALSE,FALSE,FALSE,FALSE,,FALSE,TRUE
PERKINS INDIAN RIVER PHARMACY,3721 10TH CT,,VERO BEACH,FL,32960,,27.66102,-80.392486,POINT (-80.392486 27.66102),12/6/2024 0:00,TRUE,,,FALSE,FALSE,FALSE,FALSE,FALSE,FALSE,FALSE,FALSE,FALSE,FALSE,FALSE,FALSE,FALSE,FALSE,FALSE,FALSE,FALSE,GN1,FALSE,TRUE
PUBLIX PHARMACY #1214,1024 HWY A1A STE 120,,SATELLITE BEACH,FL,32937,,28.185292,-80.594174,POINT (-80.594174 28.185292),12/6/2024 0:00,TRUE,,,FALSE,FALSE,FALSE,FALSE,FALSE,FALSE,FALSE,FALSE,FALSE,FALSE,FALSE,FALSE,FALSE,FALSE,FALSE,FALSE,FALSE,PX1,FALSE,TRUE
WALGREENS #11190,24170 US HWY 27,,LAKE WALES,FL,33859,,27.957577,-81.623083,POINT (-81.623083 27.957577),12/6/2024 0:00,TRUE,,,FALSE,FALSE,FALSE,FALSE,FALSE,FALSE,FALSE,FALSE,FALSE,FALSE,FALSE,FALSE,FALSE,FALSE,FALSE,FALSE,FALSE,WG1,FALSE,TRUE
WALGREENS #10793,15705 SW 72ND STREET,,MIAMI,FL,33193,,25.699389,-80.447169,POINT (-80.447169 25.699389),12/6/2024 0:00,TRUE,,,FALSE,FALSE,FALSE,FALSE,FALSE,FALSE,FALSE,FALSE,FALSE,FALSE,FALSE,FALSE,FALSE,FALSE,FALSE,FALSE,FALSE,WG1,FALSE,TRUE
WALGREENS #11484,200 SOUTHERN BREEZE DR,,MINNEOLA,FL,34715,,28.590928,-81.751297,POINT (-81.751297 28.590928),12/6/2024 0:00,TRUE,,,FALSE,FALSE,FALSE,FALSE,FALSE,FALSE,FALSE,FALSE,FALSE,FALSE,FALSE,FALSE,FALSE,FALSE,FALSE,FALSE,FALSE,WG1,FALSE,TRUE
CVS PHARMACY #03445,11264 BEACH BLVD,,JACKSONVILLE,FL,32246,904-641-5411,30.285238,-81.528545,POINT (-81.528545 30.285238),12/6/2024 0:00,TRUE,,,FALSE,FALSE,FALSE,TRUE,TRUE,TRUE,FALSE,FALSE,FALSE,FALSE,FALSE,TRUE,TRUE,FALSE,FALSE,FALSE,FALSE,CV1,TRUE,TRUE
CVS PHARMACY #03423,1300 E VINE ST,,KISSIMMEE,FL,34744,407-846-7858,28.303665,-81.390764,POINT (-81.390764 28.303665),12/6/2024 0:00,TRUE,,,FALSE,FALSE,FALSE,TRUE,TRUE,TRUE,FALSE,TRUE,TRUE,FALSE,FALSE,TRUE,TRUE,FALSE,FALSE,FALSE,FALSE,CV1,TRUE,TRUE
CVS PHARMACY #00998,4401 W GANDY BLVD,,TAMPA,FL,33611,813-837-8382,27.894185,-82.518986,POINT (-82.518986 27.894185),12/6/2024 0:00,TRUE,,,FALSE,FALSE,FALSE,TRUE,TRUE,TRUE,FALSE,TRUE,TRUE,FALSE,FALSE,TRUE,TRUE,FALSE,FALSE,FALSE,FALSE,CV1,TRUE,TRUE
PUBLIX PHARMACY #1321,3030 54TH AVENUE SOUTH,,ST PETERSBURG,FL,33712,,27.71808,-82.673965,POINT (-82.673965 27.71808),12/6/2024 0:00,TRUE,,,FALSE,FALSE,FALSE,FALSE,FALSE,FALSE,FALSE,FALSE,FALSE,FALSE,FALSE,FALSE,FALSE,FALSE,FALSE,FALSE,FALSE,PX1,FALSE,TRUE
WALGREENS #12105,680 E BURLEIGH BLVD,,TAVARES,FL,32778-2208,,28.811253,-81.73150161,POINT (-81.73150161 28.811253),12/6/2024 0:00,TRUE,,,FALSE,FALSE,FALSE,FALSE,FALSE,FALSE,FALSE,FALSE,FALSE,FALSE,FALSE,FALSE,FALSE,FALSE,FALSE,FALSE,FALSE,WG1,FALSE,TRUE
WALGREENS #4734,719 S STATE RD 19,,PALATKA,FL,32177-3946,,29.641993,-81.675137,POINT (-81.675137 29.641993),12/6/2024 0:00,TRUE,,,FALSE,FALSE,FALSE,FALSE,FALSE,FALSE,FALSE,FALSE,FALSE,FALSE,FALSE,FALSE,FALSE,FALSE,FALSE,FALSE,FALSE,WG1,FALSE,TRUE
CVS PHARMACY #08937,24450 SR 44,,EUSTIS,FL,32736-9349,352-357-2576,28.850903,-81.552262,POINT (-81.552262 28.850903),12/6/2024 0:00,TRUE,,,FALSE,FALSE,FALSE,TRUE,TRUE,TRUE,FALSE,FALSE,FALSE,FALSE,FALSE,TRUE,TRUE,FALSE,FALSE,FALSE,FALSE,CV1,TRUE,TRUE
NORTH BALDWIN FAMILY PHARMACY,2012 HAND AVE,,BAY MINETTE,AL,36507,,30.904595,-87.783867,POINT (-87.783867 30.904595),12/6/2024 0:00,TRUE,,,FALSE,FALSE,FALSE,FALSE,FALSE,FALSE,FALSE,FALSE,FALSE,FALSE,FALSE,FALSE,FALSE,FALSE,FALSE,FALSE,FALSE,,FALSE,TRUE
CVS PHARMACY #01120,215 JACARANDA BLVD,,VENICE,FL,34292,941-485-8393,27.098941,-82.385151,POINT (-82.385151 27.098941),12/6/2024 0:00,TRUE,,,FALSE,FALSE,FALSE,TRUE,TRUE,TRUE,FALSE,TRUE,TRUE,FALSE,FALSE,TRUE,TRUE,FALSE,FALSE,FALSE,FALSE,CV1,TRUE,TRUE
CVS PHARMACY #03463,8905 BRYAN DAIRY RD,,LARGO,FL,33777,727-393-7542,27.873056,-82.762951,POINT (-82.762951 27.873056),12/6/2024 0:00,TRUE,,,FALSE,FALSE,FALSE,TRUE,TRUE,TRUE,FALSE,TRUE,TRUE,FALSE,FALSE,TRUE,TRUE,FALSE,FALSE,FALSE,FALSE,CV1,TRUE,TRUE
WALGREENS #5465,1025 SE PORT ST LUCIE BLVD,,PORT ST LUCIE,FL,34952,,27.272239,-80.318588,POINT (-80.318588 27.272239),12/6/2024 0:00,TRUE,,,FALSE,FALSE,FALSE,FALSE,FALSE,FALSE,FALSE,FALSE,FALSE,FALSE,FALSE,FALSE,FALSE,FALSE,FALSE,FALSE,FALSE,WG1,FALSE,TRUE
WALGREENS #3382,3604 BLANDING BLVD,,JACKSONVILLE,FL,32210-5241,,30.270003,-81.736731,POINT (-81.736731 30.270003),12/6/2024 0:00,TRUE,,,FALSE,FALSE,FALSE,FALSE,FALSE,FALSE,FALSE,FALSE,FALSE,FALSE,FALSE,FALSE,FALSE,FALSE,FALSE,FALSE,FALSE,WG1,FALSE,TRUE
VALRICO PHARMACY,2224 STATE ROAD 60 EAST,,VALRICO,FL,33594,,27.94157,-82.2499,POINT (-82.2499 27.94157),12/6/2024 0:00,TRUE,,,FALSE,FALSE,FALSE,FALSE,FALSE,FALSE,FALSE,FALSE,FALSE,FALSE,FALSE,FALSE,FALSE,FALSE,FALSE,FALSE,FALSE,,FALSE,TRUE
CVS PHARMACY #03519,238 S US HIGHWAY 17,,EAST PALATKA,FL,32131,,29.647189,-81.596299,POINT (-81.596299 29.647189),12/6/2024 0:00,TRUE,,,FALSE,FALSE,FALSE,FALSE,FALSE,FALSE,FALSE,FALSE,FALSE,FALSE,FALSE,FALSE,FALSE,FALSE,FALSE,FALSE,FALSE,CV1,FALSE,TRUE
WALGREENS #3753,2710 DEL PRADO BLVD SOUTH,,CAPE CORAL,FL,33904-5788,,26.700969,-81.941481,POINT (-81.941481 26.700969),12/6/2024 0:00,TRUE,,,FALSE,FALSE,FALSE,FALSE,FALSE,FALSE,FALSE,FALSE,FALSE,FALSE,FALSE,FALSE,FALSE,FALSE,FALSE,FALSE,FALSE,WG1,FALSE,TRUE
M & K DRUGS,340 EAST SUGARLAND HWY,SUITE B,CLEWISTON,FL,33440,,26.753972,-80.930656,POINT (-80.930656 26.753972),12/6/2024 0:00,TRUE,,,FALSE,FALSE,FALSE,FALSE,FALSE,FALSE,FALSE,FALSE,FALSE,FALSE,FALSE,FALSE,FALSE,FALSE,FALSE,FALSE,FALSE,,FALSE,TRUE
FARMACIA CALI INC,1924 W 60TH ST,,HIALEAH,FL,33012-7503,,25.876306,-80.32156,POINT (-80.32156 25.876306),12/6/2024 0:00,TRUE,,,FALSE,FALSE,FALSE,FALSE,FALSE,FALSE,FALSE,FALSE,FALSE,FALSE,FALSE,FALSE,FALSE,FALSE,FALSE,FALSE,FALSE,,FALSE,TRUE
WALMART PHARMACY 10-4427,3221 N MONROE ST,,TALLAHASSEE,FL,32303,,30.488822,-84.31842,POINT (-84.31842 30.488822),12/6/2024 0:00,TRUE,,,FALSE,FALSE,FALSE,FALSE,FALSE,FALSE,FALSE,FALSE,FALSE,FALSE,FALSE,FALSE,FALSE,FALSE,FALSE,FALSE,FALSE,WM1,FALSE,TRUE
MED-SOURCE PHARMACY,515 SW 17 AVE SUITE # 1,,MIAMI,FL,33135-3878,,25.75587467,-80.22250933,POINT (-80.22250933 25.75587467),12/6/2024 0:00,TRUE,,,FALSE,FALSE,FALSE,FALSE,FALSE,FALSE,FALSE,FALSE,FALSE,FALSE,FALSE,FALSE,FALSE,FALSE,FALSE,FALSE,FALSE,,FALSE,TRUE
WALGREENS #4217,4029 S SUNCOAST BLVD,,HOMOSASSA,FL,34446-1175,,28.803147,-82.575621,POINT (-82.575621 28.803147),12/6/2024 0:00,TRUE,,,FALSE,FALSE,FALSE,FALSE,FALSE,FALSE,FALSE,FALSE,FALSE,FALSE,FALSE,FALSE,FALSE,FALSE,FALSE,FALSE,FALSE,WG1,FALSE,TRUE
CVS PHARMACY #03490,5650 RED BUG LAKE RD,,WINTER SPRINGS,FL,32708,407-699-0781,28.64839,-81.269491,POINT (-81.269491 28.64839),12/6/2024 0:00,TRUE,,,FALSE,FALSE,FALSE,TRUE,TRUE,TRUE,FALSE,TRUE,TRUE,FALSE,FALSE,TRUE,TRUE,FALSE,FALSE,FALSE,FALSE,CV1,TRUE,TRUE
ADAMS PHARMACY INC,922 OHIO AVE,,LYNN HAVEN,FL,32444-2397,,30.244436,-85.64899,POINT (-85.64899 30.244436),12/6/2024 0:00,TRUE,,,FALSE,FALSE,FALSE,FALSE,FALSE,FALSE,FALSE,FALSE,FALSE,FALSE,FALSE,FALSE,FALSE,FALSE,FALSE,FALSE,FALSE,,FALSE,TRUE
WALGREENS #3099,1525 COLONIAL BLVD,,FORT MYERS,FL,33907-1021,,26.597284,-81.884607,POINT (-81.884607 26.597284),12/6/2024 0:00,TRUE,,,FALSE,FALSE,FALSE,FALSE,FALSE,FALSE,FALSE,FALSE,FALSE,FALSE,FALSE,FALSE,FALSE,FALSE,FALSE,FALSE,FALSE,WG1,FALSE,TRUE
NAVARRO DISCOUNT PHARMACY #10697,3949 SW 8TH ST,,MIAMI,FL,33134,305-476-1939,25.76494,-80.260261,POINT (-80.260261 25.76494),12/6/2024 0:00,TRUE,,,FALSE,FALSE,FALSE,TRUE,TRUE,TRUE,FALSE,TRUE,TRUE,FALSE,FALSE,TRUE,TRUE,FALSE,FALSE,FALSE,FALSE,CV1,TRUE,TRUE
WALGREENS #12104,13125 N MAIN ST,,JACKSONVILLE,FL,32218-2759,,30.20218,-82.01978,POINT (-82.01978 30.20218),12/6/2024 0:00,TRUE,,,FALSE,FALSE,FALSE,FALSE,FALSE,FALSE,FALSE,FALSE,FALSE,FALSE,FALSE,FALSE,FALSE,FALSE,FALSE,FALSE,FALSE,WG1,FALSE,TRUE
IDEL PHARMACY INC,3314 W COLUMBUS DR,,TAMPA,FL,33607-1820,,27.966311,-82.498249,POINT (-82.498249 27.966311),12/6/2024 0:00,TRUE,,,FALSE,FALSE,FALSE,FALSE,FALSE,FALSE,FALSE,FALSE,FALSE,FALSE,FALSE,FALSE,FALSE,FALSE,FALSE,FALSE,FALSE,MS1,FALSE,TRUE
PUBLIX PHARMACY #1327,127 CAPE CORAL PKWY WEST,,CAPE CORAL,FL,33914,,26.563316,-81.975916,POINT (-81.975916 26.563316),12/6/2024 0:00,TRUE,,,FALSE,FALSE,FALSE,FALSE,FALSE,FALSE,FALSE,FALSE,FALSE,FALSE,FALSE,FALSE,FALSE,FALSE,FALSE,FALSE,FALSE,PX1,FALSE,TRUE
GARDENS DRUGS,2100 45TH ST # B1,,WEST PALM BEACH,FL,33407-2063,,26.75881725,-80.0653225,POINT (-80.0653225 26.75881725),12/6/2024 0:00,TRUE,,,FALSE,FALSE,FALSE,FALSE,FALSE,FALSE,FALSE,FALSE,FALSE,FALSE,FALSE,FALSE,FALSE,FALSE,FALSE,FALSE,FALSE,,FALSE,TRUE
FAMU HEALTH DEPARTMENT PHARMACY,872 WEST ORANGE AVENUE,,TALLAHASSEE,FL,32310,,30.413086,-84.296781,POINT (-84.296781 30.413086),12/6/2024 0:00,TRUE,,,FALSE,FALSE,FALSE,FALSE,FALSE,FALSE,FALSE,FALSE,FALSE,FALSE,FALSE,FALSE,FALSE,FALSE,FALSE,FALSE,FALSE,,FALSE,TRUE
PUBLIX PHARMACY #1215,345  JACARANDA BLVD,,VENICE,FL,34292,,27.097439,-82.386101,POINT (-82.386101 27.097439),12/6/2024 0:00,TRUE,,,FALSE,FALSE,FALSE,FALSE,FALSE,FALSE,FALSE,FALSE,FALSE,FALSE,FALSE,FALSE,FALSE,FALSE,FALSE,FALSE,FALSE,PX1,FALSE,TRUE
WALGREENS #11737,5285 US HIGHWAY 1,,VERO BEACH,FL,32967,,27.68881,-80.412933,POINT (-80.412933 27.68881),12/6/2024 0:00,TRUE,,,FALSE,FALSE,FALSE,FALSE,FALSE,FALSE,FALSE,FALSE,FALSE,FALSE,FALSE,FALSE,FALSE,FALSE,FALSE,FALSE,FALSE,WG1,FALSE,TRUE
CVS PHARMACY #03583,12015 LITTLE RD,,HUDSON,FL,34667,727-862-3573,28.331665,-82.66697,POINT (-82.66697 28.331665),12/6/2024 0:00,TRUE,,,FALSE,FALSE,FALSE,TRUE,TRUE,TRUE,FALSE,TRUE,TRUE,FALSE,FALSE,TRUE,TRUE,FALSE,FALSE,FALSE,FALSE,CV1,TRUE,TRUE
MEDICAL ARTS PHARMACY,944 N KROME AVE,,HOMESTEAD,FL,33030-4490,,25.47922,-80.477689,POINT (-80.477689 25.47922),12/6/2024 0:00,TRUE,,,FALSE,FALSE,FALSE,FALSE,FALSE,FALSE,FALSE,FALSE,FALSE,FALSE,FALSE,FALSE,FALSE,FALSE,FALSE,FALSE,FALSE,,FALSE,TRUE
WALGREENS #6832,5800 SE FEDERAL HWY,,STUART,FL,34997-7870,,27.133205,-80.207075,POINT (-80.207075 27.133205),12/6/2024 0:00,TRUE,,,FALSE,FALSE,FALSE,FALSE,FALSE,FALSE,FALSE,FALSE,FALSE,FALSE,FALSE,FALSE,FALSE,FALSE,FALSE,FALSE,FALSE,WG1,FALSE,TRUE
CVS PHARMACY #04491,9306 NARCOOSSEE RD.,,ORLANDO,FL,32827,407-438-6898,28.431745,-81.257622,POINT (-81.257622 28.431745),12/6/2024 0:00,TRUE,,,FALSE,FALSE,FALSE,TRUE,TRUE,TRUE,FALSE,TRUE,TRUE,FALSE,FALSE,TRUE,TRUE,FALSE,FALSE,FALSE,FALSE,CV1,TRUE,TRUE
BLAKE PHARMACY,5628 TROUBLE CREEK ROAD,,NEW PORT RICHEY,FL,34652-5402,,28.223939,-82.72091,POINT (-82.72091 28.223939),12/6/2024 0:00,TRUE,,,FALSE,FALSE,FALSE,FALSE,FALSE,FALSE,FALSE,FALSE,FALSE,FALSE,FALSE,FALSE,FALSE,FALSE,FALSE,FALSE,FALSE,,FALSE,TRUE
ST. MARY PHARMACY,1290 W BAY DR.,,LARGO,FL,33770,,27.917059,-82.801617,POINT (-82.801617 27.917059),12/6/2024 0:00,TRUE,,,FALSE,FALSE,FALSE,FALSE,FALSE,FALSE,FALSE,FALSE,FALSE,FALSE,FALSE,FALSE,FALSE,FALSE,FALSE,FALSE,FALSE,GN1,FALSE,TRUE
COASTALMED OF FLORIDA LLC,433 N MACARTHUR AVE,,PANAMA CITY,FL,32401,,30.15654,-85.64951,POINT (-85.64951 30.15654),12/6/2024 0:00,TRUE,,,FALSE,FALSE,FALSE,FALSE,FALSE,FALSE,FALSE,FALSE,FALSE,FALSE,FALSE,FALSE,FALSE,FALSE,FALSE,FALSE,FALSE,MH1,FALSE,TRUE
SUNSHINE PHARMACY,104 COMMONWEALTH AVE N.,SUITE 1,POLK CITY,FL,33868,,28.182496,-81.824279,POINT (-81.824279 28.182496),12/6/2024 0:00,TRUE,,,FALSE,FALSE,FALSE,FALSE,FALSE,FALSE,FALSE,FALSE,FALSE,FALSE,FALSE,FALSE,FALSE,FALSE,FALSE,FALSE,FALSE,,FALSE,TRUE
PUBLIX PHARMACY #1318,5998 MOBILE HWY,,PENSACOLA,FL,32526,,30.45947,-87.29858,POINT (-87.29858 30.45947),12/6/2024 0:00,TRUE,,,FALSE,FALSE,FALSE,FALSE,FALSE,FALSE,FALSE,FALSE,FALSE,FALSE,FALSE,FALSE,FALSE,FALSE,FALSE,FALSE,FALSE,PX1,FALSE,TRUE
AUM PHARMACY,2646 NARNIA WAY,SUITE 101,LAND O LAKES,FL,34638,,28.196633,-82.495594,POINT (-82.495594 28.196633),12/6/2024 0:00,TRUE,,,FALSE,FALSE,FALSE,FALSE,FALSE,FALSE,FALSE,FALSE,FALSE,FALSE,FALSE,FALSE,FALSE,FALSE,FALSE,FALSE,FALSE,FLA,FALSE,TRUE
PUBLIX PHARMACY #1257,414 BEACH VILLAGE DR.,,FLAGLER BEACH,FL,32136,,29.478738,-81.147693,POINT (-81.147693 29.478738),12/6/2024 0:00,TRUE,,,FALSE,FALSE,FALSE,FALSE,FALSE,FALSE,FALSE,FALSE,FALSE,FALSE,FALSE,FALSE,FALSE,FALSE,FALSE,FALSE,FALSE,PX1,FALSE,TRUE
HARRISONS PHARMACY,3333 CURRY FORD RD,,ORLANDO,FL,32806,,28.524903,-81.341911,POINT (-81.341911 28.524903),12/6/2024 0:00,TRUE,,,FALSE,FALSE,FALSE,FALSE,FALSE,FALSE,FALSE,FALSE,FALSE,FALSE,FALSE,FALSE,FALSE,FALSE,FALSE,FALSE,FALSE,,FALSE,TRUE
SAM'S PHARMACY 10-4991,450 TOWNSEND RD,,COCOA,FL,32926-3308,,28.362306,-80.794155,POINT (-80.794155 28.362306),12/6/2024 0:00,TRUE,,,FALSE,FALSE,FALSE,FALSE,FALSE,FALSE,FALSE,FALSE,FALSE,FALSE,FALSE,FALSE,FALSE,FALSE,FALSE,FALSE,FALSE,WM1,FALSE,TRUE
CVS PHARMACY #17571,4305 NORFOLK PKWY,,WEST MELBOURNE,FL,32904-8603,321-821-7341,28.038353,-80.661,POINT (-80.661 28.038353),12/6/2024 0:00,TRUE,,,FALSE,FALSE,FALSE,TRUE,TRUE,TRUE,FALSE,TRUE,TRUE,FALSE,FALSE,TRUE,TRUE,FALSE,FALSE,FALSE,FALSE,CV1,TRUE,TRUE
ADVENTHEALTH OUTPATIENT PHARMACY GINSBURG,601 E ROLLINS ST,GINSBURG TOWER 1ST FLR,ORLANDO,FL,32803-1248,,28.575276,-81.371782,POINT (-81.371782 28.575276),12/6/2024 0:00,TRUE,,,FALSE,FALSE,FALSE,FALSE,FALSE,FALSE,FALSE,FALSE,FALSE,FALSE,FALSE,FALSE,FALSE,FALSE,FALSE,FALSE,FALSE,FLA,FALSE,TRUE
CVS PHARMACY #03604,1806 S RIDGEWOOD AVE,,EDGEWATER,FL,32132,386-423-4674,28.97297,-80.896793,POINT (-80.896793 28.97297),12/6/2024 0:00,TRUE,,,FALSE,FALSE,FALSE,TRUE,TRUE,TRUE,FALSE,TRUE,TRUE,FALSE,FALSE,TRUE,TRUE,FALSE,FALSE,FALSE,FALSE,CV1,TRUE,TRUE
WALGREENS #11684,2251 N SEMORAN BLVD,,ORLANDO,FL,32807-3707,,28.574526,-81.309968,POINT (-81.309968 28.574526),12/6/2024 0:00,TRUE,,,FALSE,FALSE,FALSE,FALSE,FALSE,FALSE,FALSE,FALSE,FALSE,FALSE,FALSE,FALSE,FALSE,FALSE,FALSE,FALSE,FALSE,WG1,FALSE,TRUE
CVS PHARMACY #03624,1208 W JEFFERSON STREET,,QUINCY,FL,32351,850-875-3021,30.588584,-84.591741,POINT (-84.591741 30.588584),12/6/2024 0:00,TRUE,,,FALSE,FALSE,FALSE,TRUE,TRUE,TRUE,FALSE,TRUE,TRUE,FALSE,FALSE,TRUE,TRUE,FALSE,FALSE,FALSE,FALSE,CV1,TRUE,TRUE
